$GPGSV,3,2,11,24,34,120,36,25,70,295,25,28,21,305,35,29,34,187,39*77
$GPGSV,3,3,11,32,47,285,42,36,34,141,33,49,41,166,38*46
$GLGSV,3,1,10,69,07,196,21,70,38,254,21,71,28,315,29,73,23,289,30*6A
$GLGSV,3,2,10,79,31,067,33,80,59,353,28,81,36,059,34,82,35,122,28*63
$GLGSV,3,3,10,83,09,158,,88,04,017,*68
$GNGLL,4128.96509,N,00416.71354,W,194918.00,A,D*67
$GNRMC,194919.00,A,4128.96509,N,00416.71348,W,0.022,,141023,,,D*77
$GNVTG,,T,,M,0.022,N,0.041,K,D*3D
$GNGGA,194919.00,4128.96509,N,00416.71348,W,2,12,0.74,881.2,M,50.2,M,,0000*5C
$GNGSA,A,3,24,12,25,32,06,29,28,11,,,,,1.48,0.74,1.28*1D
$GNGSA,A,3,79,73,80,81,69,70,71,82,,,,,1.48,0.74,1.28*16
$GPGSV,3,1,11,06,12,052,18,10,01,243,,11,14,088,28,12,57,046,33*79
$GPGSV,3,2,11,24,34,120,36,25,70,295,25,28,21,305,35,29,34,187,39*77
$GPGSV,3,3,11,32,47,285,42,36,34,141,33,49,41,166,38*46
$GLGSV,3,1,10,69,07,196,21,70,38,254,22,71,28,315,30,73,23,289,29*69
$GLGSV,3,2,10,79,31,067,33,80,59,353,28,81,36,059,34,82,35,122,28*63
$GLGSV,3,3,10,83,09,158,,88,04,017,*68
$GNGLL,4128.96509,N,00416.71348,W,194919.00,A,D*6B
$GNRMC,194920.00,A,4128.96509,N,00416.71339,W,0.019,,141023,,,D*73
$GNVTG,,T,,M,0.019,N,0.035,K,D*36
$GNGGA,194920.00,4128.96509,N,00416.71339,W,2,12,0.74,881.1,M,50.2,M,,0000*53
$GNGSA,A,3,24,12,25,32,06,29,28,11,,,,,1.48,0.74,1.28*1D
$GNGSA,A,3,79,73,80,81,69,70,71,82,,,,,1.48,0.74,1.28*16
$GPGSV,3,1,11,06,12,052,19,10,01,243,,11,14,088,28,12,57,046,33*78
$GPGSV,3,2,11,24,34,120,37,25,70,295,26,28,21,305,35,29,34,187,39*75
$GPGSV,3,3,11,32,47,285,42,36,34,141,33,49,41,166,38*46
$GLGSV,3,1,10,69,07,196,21,70,38,254,22,71,28,315,30,73,23,289,29*69
$GLGSV,3,2,10,79,31,067,33,80,59,353,28,81,36,059,34,82,35,122,29*62
$GLGSV,3,3,10,83,09,158,,88,04,016,*69
$GNGLL,4128.96509,N,00416.71339,W,194920.00,A,D*67
$GNRMC,194921.00,A,4128.96508,N,00416.71329,W,0.013,,141023,,,D*78
$GNVTG,,T,,M,0.013,N,0.025,K,D*3D
$GNGGA,194921.00,4128.96508,N,00416.71329,W,2,12,0.74,881.0,M,50.2,M,,0000*53
$GNGSA,A,3,24,12,25,32,06,29,28,11,,,,,1.48,0.74,1.28*1D
$GNGSA,A,3,79,73,80,81,69,70,71,82,,,,,1.48,0.74,1.28*16
$GPGSV,3,1,11,06,12,052,19,10,01,243,,11,14,088,28,12,57,046,32*79
$GPGSV,3,2,11,24,34,120,37,25,70,295,26,28,21,305,35,29,34,187,39*75
$GPGSV,3,3,11,32,47,285,42,36,34,141,33,49,41,166,38*46
$GLGSV,3,1,10,69,07,196,20,70,38,254,22,71,28,315,30,73,23,289,29*68
$GLGSV,3,2,10,79,31,067,32,80,59,353,28,81,36,059,33,82,35,122,29*64
$GLGSV,3,3,10,83,09,158,,88,04,016,*69
$GNGLL,4128.96508,N,00416.71329,W,194921.00,A,D*66
$GNRMC,194922.00,A,4128.96506,N,00416.71322,W,0.030,,141023,,,D*7F
$GNVTG,,T,,M,0.030,N,0.056,K,D*38
$GNGGA,194922.00,4128.96506,N,00416.71322,W,2,12,0.74,880.9,M,50.2,M,,0000*5D
$GNGSA,A,3,24,12,25,32,06,29,28,11,,,,,1.48,0.74,1.28*1D
$GNGSA,A,3,79,73,80,81,69,70,71,82,,,,,1.48,0.74,1.28*16
$GPGSV,3,1,11,06,12,052,19,10,01,243,,11,14,088,28,12,57,046,32*79
$GPGSV,3,2,11,24,34,120,37,25,70,295,26,28,21,305,35,29,34,187,39*75
$GPGSV,3,3,11,32,47,285,42,36,34,141,33,49,41,166,38*46
$GLGSV,3,1,10,69,07,196,20,70,38,254,22,71,28,315,30,73,23,289,30*60
$GLGSV,3,2,10,79,31,067,33,80,59,353,28,81,36,059,34,82,35,122,29*62
$GLGSV,3,3,10,83,09,158,,88,04,016,*69
$GNGLL,4128.96506,N,00416.71322,W,194922.00,A,D*60
$GNRMC,194923.00,A,4128.96505,N,00416.71315,W,0.043,,141023,,,D*7D
$GNVTG,,T,,M,0.043,N,0.080,K,D*37
$GNGGA,194923.00,4128.96505,N,00416.71315,W,2,12,0.74,880.9,M,50.2,M,,0000*5B
$GNGSA,A,3,24,12,25,32,06,29,28,11,,,,,1.48,0.74,1.28*1D
$GNGSA,A,3,79,73,80,81,69,70,71,82,,,,,1.48,0.74,1.28*16
$GPGSV,3,1,11,06,12,052,19,10,01,243,,11,14,088,28,12,57,046,32*79
$GPGSV,3,2,11,24,34,120,37,25,70,295,27,28,21,305,35,29,34,187,39*74
$GPGSV,3,3,11,32,47,285,42,36,34,141,33,49,41,166,38*46
$GLGSV,3,1,10,69,07,196,20,70,38,254,22,71,28,315,30,73,23,289,30*60
$GLGSV,3,2,10,79,31,067,32,80,59,353,28,81,36,059,33,82,35,122,29*64
$GLGSV,3,3,10,83,09,158,,88,04,016,*69
$GNGLL,4128.96505,N,00416.71315,W,194923.00,A,D*66
$GNRMC,194924.00,A,4128.96505,N,00416.71310,W,0.022,,141023,,,D*78
$GNVTG,,T,,M,0.022,N,0.040,K,D*3C
$GNGGA,194924.00,4128.96505,N,00416.71310,W,2,12,0.74,880.9,M,50.2,M,,0000*59
$GNGSA,A,3,24,12,25,32,06,29,28,11,,,,,1.48,0.74,1.28*1D
$GNGSA,A,3,79,73,80,81,69,70,71,82,,,,,1.48,0.74,1.28*16
$GPGSV,3,1,11,06,12,052,18,10,01,243,,11,14,088,29,12,57,046,32*79
$GPGSV,3,2,11,24,34,120,37,25,70,295,27,28,21,305,35,29,34,187,39*74
$GPGSV,3,3,11,32,47,285,42,36,34,141,33,49,41,166,38*46
$GLGSV,3,1,10,69,07,196,19,70,38,254,22,71,28,315,30,73,23,289,30*6A
$GLGSV,3,2,10,79,31,067,32,80,59,353,28,81,36,059,33,82,35,122,29*64
$GLGSV,3,3,10,83,09,158,,88,04,016,*69
$GNGLL,4128.96505,N,00416.71310,W,194924.00,A,D*64
$GNRMC,194925.00,A,4128.96505,N,00416.71307,W,0.016,,141023,,,D*78
$GNVTG,,T,,M,0.016,N,0.030,K,D*3C
$GNGGA,194925.00,4128.96505,N,00416.71307,W,2,12,0.74,880.9,M,50.2,M,,0000*5E
$GNGSA,A,3,24,12,25,32,06,29,28,11,,,,,1.48,0.74,1.28*1D
$GNGSA,A,3,79,73,80,81,69,70,71,82,,,,,1.48,0.74,1.28*16
$GPGSV,3,1,11,06,12,052,18,10,01,243,,11,14,088,29,12,57,046,32*79
$GPGSV,3,2,11,24,34,120,37,25,70,295,27,28,21,305,35,29,34,187,39*74
$GPGSV,3,3,11,32,47,285,42,36,34,141,33,49,41,166,38*46
$GLGSV,3,1,10,69,07,196,19,70,38,254,21,71,28,315,30,73,23,289,30*69
$GLGSV,3,2,10,79,31,067,32,80,59,353,29,81,36,059,33,82,35,122,29*65
$GLGSV,3,3,10,83,09,158,,88,04,016,*69
$GNGLL,4128.96505,N,00416.71307,W,194925.00,A,D*63
$GNRMC,194926.00,A,4128.96506,N,00416.71303,W,0.025,,141023,,,D*7C
$GNVTG,,T,,M,0.025,N,0.046,K,D*3D
$GNGGA,194926.00,4128.96506,N,00416.71303,W,2,12,0.74,881.0,M,50.2,M,,0000*52
$GNGSA,A,3,24,12,25,32,06,29,28,11,,,,,1.48,0.74,1.29*1C
$GNGSA,A,3,79,73,80,81,69,70,71,82,,,,,1.48,0.74,1.29*17
$GPGSV,3,1,11,06,12,052,17,10,01,243,,11,14,088,29,12,57,046,33*77
$GPGSV,3,2,11,24,34,120,37,25,70,295,27,28,21,305,35,29,34,187,39*74
$GPGSV,3,3,11,32,47,285,42,36,34,141,33,49,41,166,38*46
$GLGSV,3,1,10,69,07,196,18,70,38,254,21,71,28,315,30,73,23,289,30*68
$GLGSV,3,2,10,79,31,067,33,80,59,353,29,81,36,059,33,82,35,122,29*64
$GLGSV,3,3,10,83,09,158,,88,04,016,*69
$GNGLL,4128.96506,N,00416.71303,W,194926.00,A,D*67
$GNRMC,194927.00,A,4128.96507,N,00416.71298,W,0.004,,141023,,,D*7C
$GNVTG,,T,,M,0.004,N,0.008,K,D*34
$GNGGA,194927.00,4128.96507,N,00416.71298,W,2,12,0.74,881.1,M,50.2,M,,0000*50
$GNGSA,A,3,24,12,25,32,06,29,28,11,,,,,1.48,0.74,1.29*1C
$GNGSA,A,3,79,73,80,81,69,70,71,82,,,,,1.48,0.74,1.29*17
$GPGSV,3,1,11,06,12,052,18,10,01,243,,11,14,088,29,12,57,046,33*78
$GPGSV,3,2,11,24,34,120,37,25,70,295,27,28,21,305,35,29,34,187,39*74
$GPGSV,3,3,11,32,47,285,42,36,34,141,33,49,41,166,38*46
$GLGSV,3,1,10,69,07,196,18,70,38,254,22,71,28,315,30,73,23,289,30*6B
$GLGSV,3,2,10,79,31,067,33,80,59,353,30,81,36,059,32,82,35,122,29*6D
$GLGSV,3,3,10,83,09,158,,88,04,016,*69
$GNGLL,4128.96507,N,00416.71298,W,194927.00,A,D*64
$GNRMC,194928.00,A,4128.96508,N,00416.71294,W,0.026,,141023,,,D*70
$GNVTG,,T,,M,0.026,N,0.048,K,D*30
$GNGGA,194928.00,4128.96508,N,00416.71294,W,2,12,0.74,881.1,M,50.2,M,,0000*5C
$GNGSA,A,3,24,12,25,32,06,29,28,11,,,,,1.48,0.74,1.29*1C
$GNGSA,A,3,79,73,80,81,69,70,71,82,,,,,1.48,0.74,1.29*17
$GPGSV,3,1,11,06,12,052,19,10,01,243,,11,14,088,29,12,57,046,33*79
$GPGSV,3,2,11,24,34,120,37,25,70,295,27,28,21,305,35,29,34,187,39*74
$GPGSV,3,3,11,32,47,285,42,36,34,141,33,49,41,166,38*46
$GLGSV,3,1,10,69,07,196,17,70,38,254,21,71,28,315,30,73,23,289,29*6F
$GLGSV,3,2,10,79,31,067,32,80,59,353,30,81,36,059,32,82,35,122,28*6D
$GLGSV,3,3,10,83,09,158,,88,04,016,*69
$GNGLL,4128.96508,N,00416.71294,W,194928.00,A,D*68
$GNRMC,194929.00,A,4128.96509,N,00416.71290,W,0.013,,141023,,,D*72
$GNVTG,,T,,M,0.013,N,0.025,K,D*3D
$GNGGA,194929.00,4128.96509,N,00416.71290,W,2,12,0.74,881.2,M,50.2,M,,0000*5B
$GNGSA,A,3,24,12,25,32,06,29,28,11,,,,,1.48,0.74,1.29*1C
$GNGSA,A,3,79,73,80,81,69,70,71,82,,,,,1.48,0.74,1.29*17
$GPGSV,3,1,11,06,12,052,20,10,00,243,,11,14,088,29,12,57,046,33*72
$GPGSV,3,2,11,24,34,120,37,25,70,295,27,28,21,305,35,29,34,187,39*74
$GPGSV,3,3,11,32,47,285,42,36,34,141,33,49,41,166,38*46
$GLGSV,3,1,10,69,07,196,19,70,38,254,22,71,28,315,29,73,23,289,29*6A
$GLGSV,3,2,10,79,31,067,32,80,59,353,30,81,36,059,33,82,35,122,28*6C
$GLGSV,3,3,10,83,09,158,,88,04,016,*69
$GNGLL,4128.96509,N,00416.71290,W,194929.00,A,D*6C
$GNRMC,194930.00,A,4128.96510,N,00416.71287,W,0.014,,141023,,,D*73
$GNVTG,,T,,M,0.014,N,0.027,K,D*38
$GNGGA,194930.00,4128.96510,N,00416.71287,W,2,12,0.74,881.2,M,50.2,M,,0000*5D
$GNGSA,A,3,24,12,25,32,06,29,28,11,,,,,1.48,0.74,1.29*1C
$GNGSA,A,3,79,73,80,81,69,70,71,82,,,,,1.48,0.74,1.29*17
$GPGSV,3,1,11,06,12,052,20,10,00,243,,11,14,088,29,12,57,046,33*72
$GPGSV,3,2,11,24,34,120,37,25,70,295,28,28,21,305,35,29,34,187,39*7B
$GPGSV,3,3,11,32,47,285,42,36,34,141,33,49,41,166,38*46
$GLGSV,3,1,10,69,07,196,19,70,38,254,22,71,28,315,29,73,23,289,29*6A
$GLGSV,3,2,10,79,31,067,32,80,59,353,31,81,36,059,32,82,35,122,28*6C
$GLGSV,3,3,10,83,09,158,,88,04,016,*69
$GNGLL,4128.96510,N,00416.71287,W,194930.00,A,D*6A
$GNRMC,194931.00,A,4128.96512,N,00416.71279,W,0.024,,141023,,,D*72
$GNVTG,,T,,M,0.024,N,0.044,K,D*3E
$GNGGA,194931.00,4128.96512,N,00416.71279,W,2,12,0.74,881.3,M,50.2,M,,0000*5E
$GNGSA,A,3,24,12,25,32,06,29,28,11,,,,,1.49,0.74,1.29*1D
$GNGSA,A,3,79,73,80,81,69,70,71,82,,,,,1.49,0.74,1.29*16
$GPGSV,3,1,11,06,12,052,19,10,00,243,,11,14,088,29,12,56,047,33*78
$GPGSV,3,2,11,24,34,120,38,25,70,295,28,28,21,305,35,29,34,187,39*74
$GPGSV,3,3,11,32,47,285,42,36,34,141,33,49,41,166,38*46
$GLGSV,3,1,10,69,07,196,19,70,38,254,23,71,28,315,29,73,23,289,29*6B
$GLGSV,3,2,10,79,31,067,32,80,59,353,31,81,36,059,32,82,35,122,28*6C
$GLGSV,3,3,10,83,09,158,,88,04,016,*69
$GNGLL,4128.96512,N,00416.71279,W,194931.00,A,D*68
$GNRMC,194932.00,A,4128.96513,N,00416.71271,W,0.027,,141023,,,D*7B
$GNVTG,,T,,M,0.027,N,0.050,K,D*38
$GNGGA,194932.00,4128.96513,N,00416.71271,W,2,12,0.74,881.3,M,50.2,M,,0000*54
$GNGSA,A,3,24,12,25,32,06,29,28,11,,,,,1.49,0.74,1.29*1D
$GNGSA,A,3,79,73,80,81,69,70,71,82,,,,,1.49,0.74,1.29*16
$GPGSV,3,1,11,06,12,052,19,10,00,243,,11,14,088,29,12,56,047,33*78
$GPGSV,3,2,11,24,34,120,38,25,70,295,28,28,21,305,35,29,34,187,39*74
$GPGSV,3,3,11,32,47,285,42,36,34,141,33,49,41,166,38*46
$GLGSV,3,1,10,69,07,196,19,70,38,254,23,71,28,315,30,73,23,289,29*63
$GLGSV,3,2,10,79,31,067,32,80,59,353,31,81,36,059,32,82,35,122,27*63
$GLGSV,3,3,10,83,09,158,,88,04,016,*69
$GNGLL,4128.96513,N,00416.71271,W,194932.00,A,D*62
$GNRMC,194933.00,A,4128.96515,N,00416.71263,W,0.014,,141023,,,D*7F
$GNVTG,,T,,M,0.014,N,0.026,K,D*39
$GNGGA,194933.00,4128.96515,N,00416.71263,W,2,12,0.74,881.4,M,50.2,M,,0000*57
$GNGSA,A,3,24,12,25,32,06,29,28,11,,,,,1.49,0.74,1.29*1D
$GNGSA,A,3,79,73,80,81,69,70,71,82,,,,,1.49,0.74,1.29*16
$GPGSV,3,1,11,06,12,052,18,10,00,243,,11,14,088,29,12,56,047,33*79
$GPGSV,3,2,11,24,34,120,38,25,70,295,29,28,21,305,35,29,34,187,39*75
$GPGSV,3,3,11,32,47,285,42,36,34,141,33,49,41,166,38*46
$GLGSV,3,1,10,69,07,196,19,70,38,254,23,71,28,315,30,73,23,289,29*63
$GLGSV,3,2,10,79,31,067,32,80,59,353,30,81,36,059,32,82,35,122,27*62
$GLGSV,3,3,10,83,09,158,,88,04,016,*69
$GNGLL,4128.96515,N,00416.71263,W,194933.00,A,D*66
$GNRMC,194934.00,A,4128.96517,N,00416.71255,W,0.019,,141023,,,D*72
$GNVTG,,T,,M,0.019,N,0.036,K,D*35
$GNGGA,194934.00,4128.96517,N,00416.71255,W,2,12,0.74,881.5,M,50.2,M,,0000*56
$GNGSA,A,3,24,12,25,32,06,29,28,11,,,,,1.49,0.74,1.29*1D
$GNGSA,A,3,79,73,80,81,69,70,71,82,,,,,1.49,0.74,1.29*16
$GPGSV,3,1,11,06,12,052,20,10,00,243,,11,14,088,29,12,56,047,33*72
$GPGSV,3,2,11,24,34,120,38,25,70,295,29,28,21,305,35,29,34,187,39*75
$GPGSV,3,3,11,32,47,285,42,36,34,141,33,49,41,166,38*46
$GLGSV,3,1,10,69,07,196,20,70,38,254,23,71,28,315,31,73,23,289,29*68
$GLGSV,3,2,10,79,31,067,33,80,59,353,30,81,36,059,32,82,35,122,26*62
$GLGSV,3,3,10,83,09,158,,88,04,016,*69
$GNGLL,4128.96517,N,00416.71255,W,194934.00,A,D*66
$GNRMC,194935.00,A,4128.96517,N,00416.71246,W,0.021,,141023,,,D*7A
$GNVTG,,T,,M,0.021,N,0.038,K,D*30
$GNGGA,194935.00,4128.96517,N,00416.71246,W,2,12,0.74,881.6,M,50.2,M,,0000*56
$GNGSA,A,3,24,12,25,32,06,29,28,11,,,,,1.49,0.74,1.29*1D
$GNGSA,A,3,79,73,80,81,69,70,71,82,,,,,1.49,0.74,1.29*16
$GPGSV,3,1,11,06,12,052,21,10,00,243,,11,14,088,28,12,56,047,33*72
$GPGSV,3,2,11,24,34,120,38,25,70,295,29,28,21,305,35,29,34,187,39*75
$GPGSV,3,3,11,32,47,285,42,36,34,141,33,49,41,166,38*46
$GLGSV,3,1,10,69,07,196,19,70,38,254,23,71,28,315,31,73,23,289,29*62
$GLGSV,3,2,10,79,31,067,33,80,59,353,30,81,36,059,32,82,35,122,26*62
$GLGSV,3,3,10,83,09,158,,88,04,016,*69
$GNGLL,4128.96517,N,00416.71246,W,194935.00,A,D*65
$GNRMC,194936.00,A,4128.96518,N,00416.71238,W,0.035,,141023,,,D*7A
$GNVTG,,T,,M,0.035,N,0.064,K,D*3C
$GNGGA,194936.00,4128.96518,N,00416.71238,W,2,12,0.74,881.7,M,50.2,M,,0000*52
$GNGSA,A,3,24,12,25,32,06,29,28,11,,,,,1.49,0.74,1.29*1D
$GNGSA,A,3,79,73,80,81,69,70,71,82,,,,,1.49,0.74,1.29*16
$GPGSV,3,1,11,06,12,052,21,10,00,243,,11,14,088,28,12,56,047,34*75
$GPGSV,3,2,11,24,34,120,38,25,70,295,29,28,21,305,35,29,34,187,39*75
$GPGSV,3,3,11,32,47,285,42,36,34,141,33,49,41,166,38*46
$GLGSV,3,1,10,69,07,196,20,70,38,254,23,71,28,315,31,73,23,289,28*69
$GLGSV,3,2,10,79,31,067,33,80,59,353,30,81,36,059,32,82,35,122,25*61
$GLGSV,3,3,10,83,09,158,,88,04,016,*69
$GNGLL,4128.96518,N,00416.71238,W,194936.00,A,D*60
$GNRMC,194937.00,A,4128.96519,N,00416.71231,W,0.011,,141023,,,D*75
$GNVTG,,T,,M,0.011,N,0.020,K,D*3A
$GNGGA,194937.00,4128.96519,N,00416.71231,W,2,12,0.74,881.9,M,50.2,M,,0000*55
$GNGSA,A,3,24,12,25,32,06,29,28,11,,,,,1.49,0.74,1.29*1D
$GNGSA,A,3,79,73,80,81,69,70,71,82,,,,,1.49,0.74,1.29*16
$GPGSV,3,1,11,06,12,052,22,10,00,243,,11,14,088,28,12,56,047,34*76
$GPGSV,3,2,11,24,34,120,38,25,70,295,30,28,21,305,35,29,34,187,39*7D
$GPGSV,3,3,11,32,47,285,42,36,34,141,33,49,41,166,38*46
$GLGSV,3,1,10,69,07,196,20,70,38,254,23,71,28,315,32,73,23,289,28*6A
$GLGSV,3,2,10,79,31,067,33,80,59,353,31,81,36,059,32,82,35,122,25*60
$GLGSV,3,3,10,83,09,158,,88,04,016,*69
$GNGLL,4128.96519,N,00416.71231,W,194937.00,A,D*69
$GNRMC,194938.00,A,4128.96519,N,00416.71223,W,0.054,,141023,,,D*78
$GNVTG,,T,,M,0.054,N,0.100,K,D*38
$GNGGA,194938.00,4128.96519,N,00416.71223,W,2,12,0.74,882.0,M,50.2,M,,0000*53
$GNGSA,A,3,24,12,25,32,06,29,28,11,,,,,1.49,0.74,1.29*1D
$GNGSA,A,3,79,73,80,81,69,70,71,82,,,,,1.49,0.74,1.29*16
$GPGSV,3,1,11,06,12,052,22,10,00,243,,11,14,088,28,12,56,047,34*76
$GPGSV,3,2,11,24,34,120,38,25,70,295,30,28,21,305,35,29,34,187,39*7D
$GPGSV,3,3,11,32,47,285,42,36,34,141,33,49,41,166,38*46
$GLGSV,3,1,10,69,07,196,20,70,38,254,23,71,28,315,32,73,23,289,28*6A
$GLGSV,3,2,10,79,31,067,32,80,59,353,31,81,36,059,33,82,35,122,25*60
$GLGSV,3,3,10,83,09,158,,88,04,016,*69
$GNGLL,4128.96519,N,00416.71223,W,194938.00,A,D*65
$GNRMC,194939.00,A,4128.96519,N,00416.71220,W,0.018,,141023,,,D*72
$GNVTG,,T,,M,0.018,N,0.033,K,D*31
$GNGGA,194939.00,4128.96519,N,00416.71220,W,2,12,0.74,882.2,M,50.2,M,,0000*53
$GNGSA,A,3,24,12,25,32,06,29,28,11,,,,,1.49,0.74,1.29*1D
$GNGSA,A,3,79,73,80,81,69,70,71,82,,,,,1.49,0.74,1.29*16
$GPGSV,3,1,11,06,12,052,21,10,00,243,,11,14,088,28,12,56,047,34*75
$GPGSV,3,2,11,24,34,120,37,25,70,295,30,28,21,305,35,29,34,187,39*72
$GPGSV,3,3,11,32,47,285,42,36,34,141,33,49,41,166,38*46
$GLGSV,3,1,10,69,07,196,19,70,38,254,23,71,28,315,32,73,23,289,28*60
$GLGSV,3,2,10,79,31,067,33,80,59,353,31,81,36,059,32,82,35,122,25*60
$GLGSV,3,3,10,83,09,158,,88,04,016,*69
$GNGLL,4128.96519,N,00416.71220,W,194939.00,A,D*67
$GNRMC,194940.00,A,4128.96517,N,00416.71217,W,0.008,,141023,,,D*77
$GNVTG,,T,,M,0.008,N,0.016,K,D*37
$GNGGA,194940.00,4128.96517,N,00416.71217,W,2,12,0.74,882.2,M,50.2,M,,0000*57
$GNGSA,A,3,24,12,25,32,06,29,28,11,,,,,1.49,0.74,1.29*1D
$GNGSA,A,3,79,73,80,81,69,70,71,82,,,,,1.49,0.74,1.29*16
$GPGSV,3,1,11,06,12,052,21,10,00,243,,11,14,088,27,12,56,047,34*7A
$GPGSV,3,2,11,24,34,120,37,25,70,295,30,28,21,305,35,29,34,187,39*72
$GPGSV,3,3,11,32,47,285,41,36,34,141,33,49,41,166,38*45
$GLGSV,3,1,10,69,07,196,18,70,38,254,23,71,28,315,31,73,23,289,28*62
$GLGSV,3,2,10,79,31,067,32,80,59,353,32,81,36,059,32,82,35,122,24*63
$GLGSV,3,3,10,83,09,158,,88,04,016,*69
$GNGLL,4128.96517,N,00416.71217,W,194940.00,A,D*63
$GNRMC,194941.00,A,4128.96515,N,00416.71212,W,0.010,,141023,,,D*78
$GNVTG,,T,,M,0.010,N,0.019,K,D*31
$GNGGA,194941.00,4128.96515,N,00416.71212,W,2,12,0.74,882.1,M,50.2,M,,0000*52
$GNGSA,A,3,24,12,25,32,06,29,28,11,,,,,1.49,0.74,1.29*1D
$GNGSA,A,3,79,73,80,81,69,70,71,82,,,,,1.49,0.74,1.29*16
$GPGSV,3,1,11,06,12,052,22,10,00,243,,11,14,088,27,12,56,047,34*79
$GPGSV,3,2,11,24,34,120,38,25,70,295,31,28,21,305,35,29,34,187,39*7C
$GPGSV,3,3,11,32,47,285,41,36,34,141,33,49,41,166,38*45
$GLGSV,3,1,10,69,07,196,18,70,38,254,23,71,28,315,31,73,23,289,28*62
$GLGSV,3,2,10,79,31,067,33,80,59,353,32,81,36,059,33,82,35,122,23*64
$GLGSV,3,3,10,83,09,158,,88,04,016,*69
$GNGLL,4128.96515,N,00416.71212,W,194941.00,A,D*65
$GNRMC,194942.00,A,4128.96513,N,00416.71210,W,0.011,,141023,,,D*7E
$GNVTG,,T,,M,0.011,N,0.020,K,D*3A
$GNGGA,194942.00,4128.96513,N,00416.71210,W,2,12,0.74,882.2,M,50.2,M,,0000*56
$GNGSA,A,3,24,12,25,32,06,29,28,11,,,,,1.49,0.74,1.29*1D
$GNGSA,A,3,79,73,80,81,69,70,71,82,,,,,1.49,0.74,1.29*16
$GPGSV,3,1,11,06,12,052,22,10,00,243,,11,14,088,27,12,56,047,35*78
$GPGSV,3,2,11,24,34,120,37,25,70,295,32,28,21,305,35,29,34,187,39*70
$GPGSV,3,3,11,32,47,285,41,36,34,141,33,49,41,166,39*44
$GLGSV,3,1,10,69,07,196,19,70,38,254,23,71,28,315,31,73,23,289,28*63
$GLGSV,3,2,10,79,31,067,33,80,59,353,32,81,36,059,33,82,35,122,22*65
$GLGSV,3,3,10,83,09,158,,88,04,016,*69
$GNGLL,4128.96513,N,00416.71210,W,194942.00,A,D*62
$GNRMC,194943.00,A,4128.96513,N,00416.71208,W,0.062,,141023,,,D*72
$GNVTG,,T,,M,0.062,N,0.116,K,D*3A
$GNGGA,194943.00,4128.96513,N,00416.71208,W,2,12,0.74,882.2,M,50.2,M,,0000*5E
$GNGSA,A,3,24,12,25,32,06,29,28,11,,,,,1.49,0.74,1.29*1D
$GNGSA,A,3,79,73,80,81,69,70,71,82,,,,,1.49,0.74,1.29*16
$GPGSV,3,1,11,06,12,052,21,10,00,243,,11,14,088,27,12,56,047,35*7B
$GPGSV,3,2,11,24,34,120,37,25,70,295,32,28,21,305,35,29,34,187,39*70
$GPGSV,3,3,11,32,47,285,41,36,34,141,34,49,41,166,38*42
$GLGSV,3,1,10,69,07,196,18,70,38,254,23,71,28,315,31,73,23,289,28*62
$GLGSV,3,2,10,79,31,067,33,80,59,353,33,81,36,059,33,82,35,122,21*67
$GLGSV,3,3,10,83,09,158,,88,04,016,*69
$GNGLL,4128.96513,N,00416.71208,W,194943.00,A,D*6A
$GNRMC,194944.00,A,4128.96511,N,00416.71209,W,0.035,,141023,,,D*74
$GNVTG,,T,,M,0.035,N,0.064,K,D*3C
$GNGGA,194944.00,4128.96511,N,00416.71209,W,2,12,0.74,882.3,M,50.2,M,,0000*5B
$GNGSA,A,3,24,12,25,32,06,29,28,11,,,,,1.49,0.74,1.29*1D
$GNGSA,A,3,79,73,80,81,69,70,71,82,,,,,1.49,0.74,1.29*16
$GPGSV,3,1,11,06,12,052,20,10,00,243,,11,14,088,27,12,56,047,35*7A
$GPGSV,3,2,11,24,34,120,37,25,70,297,33,28,21,305,35,29,34,187,39*73
$GPGSV,3,3,11,32,47,285,41,36,34,141,34,49,41,166,38*42
$GLGSV,3,1,10,69,07,196,18,70,38,254,24,71,28,315,31,73,23,289,28*65
$GLGSV,3,2,10,79,31,067,32,80,59,353,33,81,36,059,33,82,35,122,20*67
$GLGSV,3,3,10,83,09,158,,88,04,016,*69
$GNGLL,4128.96511,N,00416.71209,W,194944.00,A,D*6E
$GNRMC,194945.00,A,4128.96509,N,00416.71208,W,0.013,,141023,,,D*79
$GNVTG,,T,,M,0.013,N,0.025,K,D*3D
$GNGGA,194945.00,4128.96509,N,00416.71208,W,2,12,0.74,882.4,M,50.2,M,,0000*55
$GNGSA,A,3,24,12,25,32,06,29,28,11,,,,,1.49,0.74,1.29*1D
$GNGSA,A,3,79,73,80,81,69,70,71,82,,,,,1.49,0.74,1.29*16
$GPGSV,3,1,11,06,12,052,21,10,00,243,,11,14,088,28,12,56,047,35*74
$GPGSV,3,2,11,24,34,120,37,25,70,297,33,28,21,305,34,29,34,187,39*72
$GPGSV,3,3,11,32,47,285,41,36,34,141,34,49,41,166,38*42
$GLGSV,3,1,10,69,07,196,18,70,38,254,24,71,28,315,31,73,23,289,28*65
$GLGSV,3,2,10,79,31,067,33,80,59,353,33,81,36,059,33,82,35,122,19*6C
$GLGSV,3,3,10,83,09,158,,88,04,016,*69
$GNGLL,4128.96509,N,00416.71208,W,194945.00,A,D*67
$GNRMC,194946.00,A,4128.96508,N,00416.71207,W,0.011,,141023,,,D*76
$GNVTG,,T,,M,0.011,N,0.020,K,D*3A
$GNGGA,194946.00,4128.96508,N,00416.71207,W,2,12,0.74,882.5,M,50.2,M,,0000*59
$GNGSA,A,3,24,12,25,32,06,29,28,11,,,,,1.49,0.74,1.29*1D
$GNGSA,A,3,79,73,80,81,69,70,71,82,,,,,1.49,0.74,1.29*16
$GPGSV,3,1,11,06,12,052,22,10,00,243,,11,14,088,28,12,56,047,35*77
$GPGSV,3,2,11,24,34,120,37,25,70,297,33,28,21,305,34,29,34,187,39*72
$GPGSV,3,3,11,32,47,285,41,36,34,141,34,49,41,166,38*42
$GLGSV,3,1,10,69,07,196,17,70,38,254,23,71,28,315,32,73,23,289,28*6E
$GLGSV,3,2,10,79,31,067,33,80,59,353,33,81,36,059,34,82,35,122,18*6A
$GLGSV,3,3,10,83,09,158,,88,04,016,*69
$GNGLL,4128.96508,N,00416.71207,W,194946.00,A,D*6A
$GNRMC,194947.00,A,4128.96509,N,00416.71207,W,0.027,,141023,,,D*73
$GNVTG,,T,,M,0.027,N,0.049,K,D*30
$GNGGA,194947.00,4128.96509,N,00416.71207,W,2,12,0.74,882.7,M,50.2,M,,0000*5B
$GNGSA,A,3,24,12,25,32,06,29,28,11,,,,,1.49,0.74,1.29*1D
$GNGSA,A,3,79,73,80,81,69,70,71,82,,,,,1.49,0.74,1.29*16
$GPGSV,3,1,11,06,12,052,23,10,00,243,,11,14,088,28,12,56,047,34*77
$GPGSV,3,2,11,24,34,120,37,25,70,297,33,28,21,305,34,29,34,187,40*7C
$GPGSV,3,3,11,32,47,285,41,36,34,141,34,49,41,166,38*42
$GLGSV,3,1,10,69,07,196,18,70,38,254,23,71,28,315,31,73,23,289,28*62
$GLGSV,3,2,10,79,31,067,33,80,59,353,32,81,36,059,34,82,35,122,16*65
$GLGSV,3,3,10,83,09,158,,88,04,016,*69
$GNGLL,4128.96509,N,00416.71207,W,194947.00,A,D*6A
$GNRMC,194948.00,A,4128.96511,N,00416.71206,W,0.046,,141023,,,D*73
$GNVTG,,T,,M,0.046,N,0.085,K,D*37
$GNGGA,194948.00,4128.96511,N,00416.71206,W,2,12,0.74,882.7,M,50.2,M,,0000*5C
$GNGSA,A,3,24,12,25,32,06,29,28,11,,,,,1.49,0.74,1.29*1D
$GNGSA,A,3,79,73,80,81,69,70,71,82,,,,,1.49,0.74,1.29*16
$GPGSV,3,1,11,06,12,052,23,10,00,243,,11,14,088,28,12,56,047,35*76
$GPGSV,3,2,11,24,34,120,37,25,70,297,33,28,21,305,34,29,35,187,40*7D
$GPGSV,3,3,11,32,47,285,41,36,34,141,34,49,41,166,38*42
$GLGSV,3,1,10,69,07,196,17,70,38,254,24,71,28,315,31,73,23,289,28*6A
$GLGSV,3,2,10,79,31,067,33,80,59,353,33,81,36,059,34,82,35,122,15*67
$GLGSV,3,3,10,83,09,158,,88,04,016,*69
$GNGLL,4128.96511,N,00416.71206,W,194948.00,A,D*6D
$GNRMC,194949.00,A,4128.96513,N,00416.71207,W,0.016,,141023,,,D*74
$GNVTG,,T,,M,0.016,N,0.029,K,D*34
$GNGGA,194949.00,4128.96513,N,00416.71207,W,2,12,0.74,883.0,M,50.2,M,,0000*58
$GNGSA,A,3,24,12,25,32,06,29,28,11,,,,,1.49,0.74,1.29*1D
$GNGSA,A,3,79,73,80,81,69,70,71,82,,,,,1.49,0.74,1.29*16
$GPGSV,3,1,11,06,12,052,23,10,00,243,,11,14,088,28,12,56,047,35*76
$GPGSV,3,2,11,24,34,120,37,25,70,297,33,28,21,305,34,29,35,187,40*7D
$GPGSV,3,3,11,32,47,285,41,36,34,141,34,49,41,166,38*42
$GLGSV,3,1,10,69,07,196,17,70,38,254,24,71,28,315,31,73,23,289,28*6A
$GLGSV,3,2,10,79,31,067,33,80,59,353,33,81,36,059,34,82,35,122,13*61
$GLGSV,3,3,10,83,09,158,,88,04,016,*69
$GNGLL,4128.96513,N,00416.71207,W,194949.00,A,D*6F
$GNRMC,194950.00,A,4128.96517,N,00416.71207,W,0.006,,141023,,,D*79
$GNVTG,,T,,M,0.006,N,0.010,K,D*3F
$GNGGA,194950.00,4128.96517,N,00416.71207,W,2,12,0.74,883.2,M,50.2,M,,0000*56
$GNGSA,A,3,24,12,25,32,06,29,28,11,,,,,1.49,0.74,1.29*1D
$GNGSA,A,3,79,73,80,81,69,70,71,82,,,,,1.49,0.74,1.29*16
$GPGSV,3,1,11,06,12,052,23,10,00,243,,11,14,088,28,12,56,047,35*76
$GPGSV,3,2,11,24,34,120,37,25,70,297,34,28,21,305,34,29,35,187,40*7A
$GPGSV,3,3,11,32,47,285,41,36,34,141,34,49,41,166,38*42
$GLGSV,3,1,10,69,07,196,17,70,38,254,24,71,28,315,32,73,23,289,28*69
$GLGSV,3,2,10,79,31,067,33,80,59,353,33,81,36,059,33,82,35,122,13*66
$GLGSV,3,3,10,83,09,158,,88,04,016,*69
$GNGLL,4128.96517,N,00416.71207,W,194950.00,A,D*63
$GNRMC,194951.00,A,4128.96521,N,00416.71207,W,0.065,,141023,,,D*78
$GNVTG,,T,,M,0.065,N,0.120,K,D*38
$GNGGA,194951.00,4128.96521,N,00416.71207,W,2,12,0.74,883.4,M,50.2,M,,0000*54
$GNGSA,A,3,24,12,25,32,06,29,28,11,,,,,1.49,0.74,1.29*1D
$GNGSA,A,3,79,73,80,81,69,70,71,82,,,,,1.49,0.74,1.29*16
$GPGSV,3,1,11,06,12,052,24,10,00,243,,11,14,088,28,12,56,047,35*71
$GPGSV,3,2,11,24,34,120,37,25,70,297,34,28,21,305,34,29,35,187,40*7A
$GPGSV,3,3,11,32,47,285,40,36,34,141,34,49,41,166,38*43
$GLGSV,3,1,10,69,07,196,18,70,38,254,24,71,28,315,32,73,23,289,28*66
$GLGSV,3,2,10,79,31,067,33,80,59,353,33,81,36,059,33,82,35,122,13*66
$GLGSV,3,3,10,83,09,158,,88,04,016,*69
$GNGLL,4128.96521,N,00416.71207,W,194951.00,A,D*67
$GNRMC,194952.00,A,4128.96526,N,00416.71208,W,0.024,,141023,,,D*76
$GNVTG,,T,,M,0.024,N,0.044,K,D*3E
$GNGGA,194952.00,4128.96526,N,00416.71208,W,2,12,0.74,883.5,M,50.2,M,,0000*5E
$GNGSA,A,3,24,12,25,32,06,29,28,11,,,,,1.49,0.74,1.29*1D
$GNGSA,A,3,79,73,80,81,69,70,71,82,,,,,1.49,0.74,1.29*16
$GPGSV,3,1,11,06,12,052,24,10,00,243,,11,14,088,28,12,56,047,36*72
$GPGSV,3,2,11,24,34,120,37,25,70,297,34,28,21,305,34,29,35,187,40*7A
$GPGSV,3,3,11,32,47,285,41,36,34,141,34,49,41,166,38*42
$GLGSV,3,1,10,69,07,196,17,70,38,254,24,71,28,315,32,73,23,289,28*69
$GLGSV,3,2,10,79,31,067,33,80,59,353,34,81,36,059,33,82,35,122,14*66
$GLGSV,3,3,10,83,09,158,,88,04,016,*69
$GNGLL,4128.96526,N,00416.71208,W,194952.00,A,D*6C
$GNRMC,194953.00,A,4128.96531,N,00416.71209,W,0.033,,141023,,,D*76
$GNVTG,,T,,M,0.033,N,0.061,K,D*3F
$GNGGA,194953.00,4128.96531,N,00416.71209,W,2,12,0.74,883.7,M,50.2,M,,0000*5A
$GNGSA,A,3,24,12,25,32,06,29,28,11,,,,,1.49,0.74,1.29*1D
$GNGSA,A,3,79,73,80,81,69,70,71,82,,,,,1.49,0.74,1.29*16
$GPGSV,3,1,11,06,12,052,24,10,00,243,,11,14,088,28,12,56,047,35*71
$GPGSV,3,2,11,24,34,120,37,25,70,297,34,28,21,305,34,29,35,187,40*7A
$GPGSV,3,3,11,32,47,285,40,36,34,141,34,49,41,166,38*43
$GLGSV,3,1,10,69,07,196,17,70,38,254,24,71,28,315,32,73,23,289,28*69
$GLGSV,3,2,10,79,31,067,33,80,59,353,34,81,36,059,33,82,35,122,13*61
$GLGSV,3,3,10,83,09,158,,88,04,016,*69
$GNGLL,4128.96531,N,00416.71209,W,194953.00,A,D*6A
$GNRMC,194954.00,A,4128.96536,N,00416.71211,W,0.035,,141023,,,D*79
$GNVTG,,T,,M,0.035,N,0.064,K,D*3C
$GNGGA,194954.00,4128.96536,N,00416.71211,W,2,12,0.74,883.8,M,50.2,M,,0000*5C
$GNGSA,A,3,24,12,25,32,06,29,28,11,,,,,1.49,0.74,1.29*1D
$GNGSA,A,3,79,73,80,81,69,70,71,82,,,,,1.49,0.74,1.29*16
$GPGSV,3,1,11,06,12,052,23,10,00,243,,11,14,088,28,12,56,047,35*76
$GPGSV,3,2,11,24,34,120,37,25,70,297,34,28,21,305,34,29,35,187,40*7A
$GPGSV,3,3,11,32,47,285,40,36,34,141,34,49,41,166,38*43
$GLGSV,3,1,10,69,07,196,17,70,38,254,24,71,28,315,32,73,23,289,27*66
$GLGSV,3,2,10,79,31,067,33,80,59,353,34,81,36,059,33,82,35,122,16*64
$GLGSV,3,3,10,83,09,158,,88,04,016,*69
$GNGLL,4128.96536,N,00416.71211,W,194954.00,A,D*63
$GNRMC,194955.00,A,4128.96540,N,00416.71213,W,0.019,,141023,,,D*75
$GNVTG,,T,,M,0.019,N,0.035,K,D*36
$GNGGA,194955.00,4128.96540,N,00416.71213,W,2,12,0.74,883.9,M,50.2,M,,0000*5F
$GNGSA,A,3,24,12,25,32,06,29,28,11,,,,,1.49,0.74,1.29*1D
$GNGSA,A,3,79,73,80,81,69,70,71,82,,,,,1.49,0.74,1.29*16
$GPGSV,3,1,11,06,12,052,23,10,00,243,,11,14,088,28,12,56,047,35*76
$GPGSV,3,2,11,24,34,120,37,25,70,297,34,28,21,305,35,29,35,187,40*7B
$GPGSV,3,3,11,32,47,285,40,36,34,141,34,49,41,166,38*43
$GLGSV,3,1,10,69,07,196,18,70,38,254,24,71,28,315,32,73,23,289,27*69
$GLGSV,3,2,10,79,31,067,33,80,59,353,33,81,36,059,34,82,35,122,18*6A
$GLGSV,3,3,10,83,09,158,,88,04,016,*69
$GNGLL,4128.96540,N,00416.71213,W,194955.00,A,D*61
$GNRMC,194956.00,A,4128.96542,N,00416.71214,W,0.023,,141023,,,D*7A
$GNVTG,,T,,M,0.023,N,0.042,K,D*3F
$GNGGA,194956.00,4128.96542,N,00416.71214,W,2,12,0.74,884.1,M,50.2,M,,0000*56
$GNGSA,A,3,24,12,25,32,06,29,28,11,,,,,1.49,0.74,1.29*1D
$GNGSA,A,3,79,73,80,81,69,70,71,82,,,,,1.49,0.74,1.29*16
$GPGSV,3,1,11,06,12,052,22,10,00,243,,11,14,088,28,12,56,047,35*77
$GPGSV,3,2,11,24,34,120,37,25,70,297,35,28,21,305,34,29,35,187,40*7B
$GPGSV,3,3,11,32,47,285,41,36,34,141,34,49,41,166,38*42
$GLGSV,3,1,10,69,07,196,18,70,38,254,25,71,28,315,32,73,23,289,28*67
$GLGSV,3,2,10,79,31,067,33,80,59,353,33,81,36,059,34,82,35,122,19*6B
$GLGSV,3,3,10,83,09,158,,88,04,016,*69
$GNGLL,4128.96542,N,00416.71214,W,194956.00,A,D*67
$GNRMC,194957.00,A,4128.96544,N,00416.71217,W,0.017,,141023,,,D*79
$GNVTG,,T,,M,0.017,N,0.032,K,D*3F
$GNGGA,194957.00,4128.96544,N,00416.71217,W,2,12,0.74,884.3,M,50.2,M,,0000*50
$GNGSA,A,3,24,12,25,32,06,29,28,11,,,,,1.49,0.74,1.29*1D
$GNGSA,A,3,79,73,80,81,69,70,71,82,,,,,1.49,0.74,1.29*16
$GPGSV,3,1,11,06,12,052,23,10,00,243,,11,14,088,28,12,56,047,35*76
$GPGSV,3,2,11,24,34,120,36,25,70,297,35,28,21,305,35,29,35,187,40*7B
$GPGSV,3,3,11,32,47,285,40,36,34,141,34,49,41,166,38*43
$GLGSV,3,1,10,69,07,196,17,70,38,254,24,71,28,315,32,73,23,289,28*69
$GLGSV,3,2,10,79,31,067,33,80,59,353,33,81,36,059,34,82,35,122,20*61
$GLGSV,3,3,10,83,09,158,,88,04,016,*69
$GNGLL,4128.96544,N,00416.71217,W,194957.00,A,D*63
$GNRMC,194958.00,A,4128.96548,N,00416.71220,W,0.022,,141023,,,D*78
$GNVTG,,T,,M,0.022,N,0.041,K,D*3D
$GNGGA,194958.00,4128.96548,N,00416.71220,W,2,12,0.74,884.5,M,50.2,M,,0000*51
$GNGSA,A,3,24,12,25,32,06,29,28,11,,,,,1.49,0.74,1.29*1D
$GNGSA,A,3,79,73,80,81,69,70,71,82,,,,,1.49,0.74,1.29*16
$GPGSV,3,1,11,06,12,052,24,10,00,243,,11,14,088,28,12,56,047,35*71
$GPGSV,3,2,11,24,34,120,36,25,70,297,35,28,21,305,35,29,35,187,40*7B
$GPGSV,3,3,11,32,47,285,40,36,34,141,34,49,41,166,38*43
$GLGSV,3,1,10,69,07,196,17,70,38,254,24,71,28,315,32,73,23,289,28*69
$GLGSV,3,2,10,79,31,067,33,80,59,353,33,81,36,059,34,82,35,122,21*60
$GLGSV,3,3,10,83,09,158,,88,04,016,*69
$GNGLL,4128.96548,N,00416.71220,W,194958.00,A,D*64
$GNRMC,194959.00,A,4128.96550,N,00416.71220,W,0.033,,141023,,,D*70
$GNVTG,,T,,M,0.033,N,0.060,K,D*3E
$GNGGA,194959.00,4128.96550,N,00416.71220,W,2,12,0.74,884.6,M,50.2,M,,0000*5A
$GNGSA,A,3,24,12,25,32,06,29,28,11,,,,,1.49,0.74,1.29*1D
$GNGSA,A,3,79,73,80,81,69,70,71,82,,,,,1.49,0.74,1.29*16
$GPGSV,3,1,11,06,12,052,24,10,00,243,,11,14,088,28,12,56,047,36*72
$GPGSV,3,2,11,24,34,120,37,25,70,297,35,28,21,305,35,29,35,187,40*7A
$GPGSV,3,3,11,32,47,285,40,36,34,141,34,49,41,166,38*43
$GLGSV,3,1,10,69,07,196,19,70,38,254,24,71,28,315,31,73,23,289,28*64
$GLGSV,3,2,10,79,31,067,33,80,59,353,34,81,36,059,34,82,35,122,22*64
$GLGSV,3,3,10,83,09,158,,88,04,016,*69
$GNGLL,4128.96550,N,00416.71220,W,194959.00,A,D*6C
$GNRMC,195000.00,A,4128.96551,N,00416.71221,W,0.021,,141023,,,D*77
$GNVTG,,T,,M,0.021,N,0.038,K,D*30
$GNGGA,195000.00,4128.96551,N,00416.71221,W,2,12,0.74,884.6,M,50.2,M,,0000*5E
$GNGSA,A,3,24,12,25,32,06,29,28,11,,,,,1.49,0.74,1.29*1D
$GNGSA,A,3,79,73,80,81,69,70,71,82,,,,,1.49,0.74,1.29*16
$GPGSV,3,1,11,06,12,052,25,10,00,243,,11,14,088,28,12,56,047,36*73
$GPGSV,3,2,11,24,34,120,36,25,70,297,35,28,21,305,35,29,35,187,40*7B
$GPGSV,3,3,11,32,47,285,39,36,34,141,34,49,41,166,38*4D
$GLGSV,3,1,10,69,07,196,19,70,38,254,24,71,28,315,31,73,23,289,28*64
$GLGSV,3,2,10,79,31,067,33,80,59,353,34,81,36,059,34,82,35,122,23*65
$GLGSV,3,3,10,83,09,158,,88,04,016,*69
$GNGLL,4128.96551,N,00416.71221,W,195000.00,A,D*68
$GNRMC,195001.00,A,4128.96553,N,00416.71222,W,0.067,,141023,,,D*75
$GNVTG,,T,,M,0.067,N,0.124,K,D*3E
$GNGGA,195001.00,4128.96553,N,00416.71222,W,2,12,0.74,884.7,M,50.2,M,,0000*5F
$GNGSA,A,3,24,12,25,32,06,29,28,11,,,,,1.49,0.74,1.29*1D
$GNGSA,A,3,79,73,80,81,69,70,71,82,,,,,1.49,0.74,1.29*16
$GPGSV,3,1,11,06,12,052,25,10,00,243,,11,14,088,28,12,56,047,36*73
$GPGSV,3,2,11,24,34,120,37,25,70,297,35,28,21,305,35,29,35,187,40*7A
$GPGSV,3,3,11,32,47,285,40,36,34,141,34,49,41,166,38*43
$GLGSV,3,1,10,69,07,196,19,70,38,254,23,71,28,315,31,73,23,289,28*63
$GLGSV,3,2,10,79,31,067,33,80,59,353,34,81,36,059,34,82,35,122,24*62
$GLGSV,3,3,10,83,09,158,,88,04,016,*69
$GNGLL,4128.96553,N,00416.71222,W,195001.00,A,D*68
$GNRMC,195002.00,A,4128.96554,N,00416.71223,W,0.033,,141023,,,D*71
$GNVTG,,T,,M,0.033,N,0.062,K,D*3C
$GNGGA,195002.00,4128.96554,N,00416.71223,W,2,12,0.74,884.7,M,50.2,M,,0000*5A
$GNGSA,A,3,24,12,25,32,06,29,28,11,,,,,1.49,0.74,1.29*1D
$GNGSA,A,3,79,73,80,81,69,70,71,82,,,,,1.49,0.74,1.29*16
$GPGSV,3,1,11,06,12,052,24,10,00,243,,11,14,088,27,12,56,047,34*7F
$GPGSV,3,2,11,24,34,120,35,25,70,297,34,28,21,305,34,29,35,187,38*77
$GPGSV,3,3,11,32,47,285,38,36,34,141,33,49,41,166,36*45
$GLGSV,3,1,10,69,07,196,18,70,38,254,23,71,28,315,31,73,23,289,27*6D
$GLGSV,3,2,10,79,31,067,32,80,59,353,33,81,36,059,34,82,35,122,24*64
$GLGSV,3,3,10,83,09,158,,88,04,016,*69
$GNGLL,4128.96554,N,00416.71223,W,195002.00,A,D*6D
$GNRMC,195003.00,A,4128.96558,N,00416.71225,W,0.027,,141023,,,D*7F
$GNVTG,,T,,M,0.027,N,0.050,K,D*38
$GNGGA,195003.00,4128.96558,N,00416.71225,W,2,12,0.74,884.8,M,50.2,M,,0000*5E
$GNGSA,A,3,24,12,25,32,06,29,28,11,,,,,1.49,0.74,1.29*1D
$GNGSA,A,3,79,73,80,81,69,70,71,82,,,,,1.49,0.74,1.29*16
$GPGSV,3,1,11,06,12,052,25,10,00,243,,11,14,088,27,12,56,047,35*7F
$GPGSV,3,2,11,24,34,120,37,25,70,297,35,28,21,305,35,29,35,187,40*7A
$GPGSV,3,3,11,32,47,285,40,36,34,141,34,49,41,166,38*43
$GLGSV,3,1,10,69,07,196,18,70,38,254,23,71,28,315,32,73,23,289,27*6E
$GLGSV,3,2,10,79,31,067,32,80,59,353,33,81,36,059,34,82,35,122,25*65
$GLGSV,3,3,10,83,09,158,,88,04,016,*69
$GNGLL,4128.96558,N,00416.71225,W,195003.00,A,D*66
$GNRMC,195004.00,A,4128.96563,N,00416.71227,W,0.013,,141023,,,D*75
$GNVTG,,T,,M,0.013,N,0.025,K,D*3D
$GNGGA,195004.00,4128.96563,N,00416.71227,W,2,12,0.74,884.9,M,50.2,M,,0000*52
$GNGSA,A,3,24,12,25,32,06,29,28,11,,,,,1.49,0.74,1.29*1D
$GNGSA,A,3,79,73,80,81,69,70,71,82,,,,,1.49,0.74,1.29*16
$GPGSV,3,1,11,06,12,052,25,10,00,243,,11,14,088,27,12,56,047,36*7C
$GPGSV,3,2,11,24,34,120,37,25,70,297,35,28,21,305,35,29,35,187,40*7A
$GPGSV,3,3,11,32,47,285,40,36,34,141,34,49,41,166,38*43
$GLGSV,3,1,10,69,07,196,18,70,38,254,23,71,28,315,31,73,23,289,27*6D
$GLGSV,3,2,10,79,31,067,32,80,59,353,33,81,36,059,34,82,35,122,25*65
$GLGSV,3,3,10,83,09,158,,88,04,016,*69
$GNGLL,4128.96563,N,00416.71227,W,195004.00,A,D*6B
$GNRMC,195005.00,A,4128.96570,N,00416.71230,W,0.037,,141023,,,D*76
$GNVTG,,T,,M,0.037,N,0.068,K,D*32
$GNGGA,195005.00,4128.96570,N,00416.71230,W,2,12,0.74,885.1,M,50.2,M,,0000*5E
$GNGSA,A,3,24,12,25,32,06,29,28,11,,,,,1.49,0.74,1.29*1D
$GNGSA,A,3,79,73,80,81,69,70,71,82,,,,,1.49,0.74,1.29*16
$GPGSV,3,1,11,06,12,052,25,10,00,243,,11,14,088,28,12,56,047,36*73
$GPGSV,3,2,11,24,34,120,37,25,70,297,35,28,21,305,35,29,35,187,40*7A
$GPGSV,3,3,11,32,47,285,40,36,34,141,34,49,41,166,38*43
$GLGSV,3,1,10,69,07,196,17,70,38,254,24,71,28,315,32,73,23,289,27*66
$GLGSV,3,2,10,79,31,067,31,80,59,353,33,81,36,059,34,82,35,122,25*66
$GLGSV,3,3,10,83,09,158,,88,04,016,*69
$GNGLL,4128.96570,N,00416.71230,W,195005.00,A,D*6E
$GNRMC,195006.00,A,4128.96575,N,00416.71234,W,0.009,,141023,,,D*79
$GNVTG,,T,,M,0.009,N,0.016,K,D*36
$GNGGA,195006.00,4128.96575,N,00416.71234,W,2,12,0.74,885.3,M,50.2,M,,0000*5E
$GNGSA,A,3,24,12,25,32,06,29,28,11,,,,,1.49,0.74,1.29*1D
$GNGSA,A,3,79,73,80,81,69,70,71,82,,,,,1.49,0.74,1.29*16
$GPGSV,3,1,11,06,12,052,25,10,00,243,,11,14,088,28,12,56,047,36*73
$GPGSV,3,2,11,24,34,120,37,25,70,297,35,28,21,305,35,29,35,187,40*7A
$GPGSV,3,3,11,32,47,285,40,36,34,141,34,49,41,166,38*43
$GLGSV,3,1,10,69,07,196,16,70,38,254,24,71,28,315,32,73,23,289,27*67
$GLGSV,3,2,10,79,31,067,31,80,59,353,33,81,36,059,34,82,35,122,26*65
$GLGSV,3,3,10,83,09,158,,88,04,016,*69
$GNGLL,4128.96575,N,00416.71234,W,195006.00,A,D*6C
$GNRMC,195007.00,A,4128.96581,N,00416.71237,W,0.016,,141023,,,D*7E
$GNVTG,,T,,M,0.016,N,0.029,K,D*34
$GNGGA,195007.00,4128.96581,N,00416.71237,W,2,12,0.74,885.5,M,50.2,M,,0000*51
$GNGSA,A,3,24,12,25,32,06,29,28,11,,,,,1.49,0.74,1.29*1D
$GNGSA,A,3,79,73,80,81,69,70,71,82,,,,,1.49,0.74,1.29*16
$GPGSV,3,1,11,06,12,052,25,10,00,243,,11,14,088,28,12,56,047,36*73
$GPGSV,3,2,11,24,34,120,37,25,70,297,35,28,21,305,35,29,35,187,40*7A
$GPGSV,3,3,11,32,47,285,40,36,34,141,34,49,41,166,38*43
$GLGSV,3,1,10,69,07,196,17,70,38,254,24,71,28,315,32,73,23,289,27*66
$GLGSV,3,2,10,79,31,067,31,80,59,353,33,81,36,059,34,82,35,122,25*66
$GLGSV,3,3,10,83,09,158,,88,04,016,*69
$GNGLL,4128.96581,N,00416.71237,W,195007.00,A,D*65
$GNRMC,195008.00,A,4128.96585,N,00416.71239,W,0.027,,141023,,,D*79
$GNVTG,,T,,M,0.027,N,0.049,K,D*30
$GNGGA,195008.00,4128.96585,N,00416.71239,W,2,12,0.74,885.6,M,50.2,M,,0000*57
$GNGSA,A,3,24,12,25,32,06,29,28,11,,,,,1.49,0.74,1.29*1D
$GNGSA,A,3,79,73,80,81,69,70,71,82,,,,,1.49,0.74,1.29*16
$GPGSV,3,1,11,06,12,052,26,10,00,243,,11,14,088,28,12,56,047,36*70
$GPGSV,3,2,11,24,34,120,37,25,70,297,35,28,21,305,35,29,35,187,40*7A
$GPGSV,3,3,11,32,47,285,40,36,34,141,34,49,41,166,38*43
$GLGSV,3,1,10,69,07,196,18,70,38,254,25,71,28,315,32,73,23,289,26*69
$GLGSV,3,2,10,79,31,067,31,80,59,353,33,81,36,059,34,82,35,122,25*66
$GLGSV,3,3,10,83,09,158,,88,04,016,*69
$GNGLL,4128.96585,N,00416.71239,W,195008.00,A,D*60
$GNRMC,195009.00,A,4128.96590,N,00416.71241,W,0.002,,141023,,,D*74
$GNVTG,,T,,M,0.002,N,0.004,K,D*3E
$GNGGA,195009.00,4128.96590,N,00416.71241,W,2,12,0.74,885.7,M,50.2,M,,0000*5C
$GNGSA,A,3,24,12,25,32,06,29,28,11,,,,,1.49,0.74,1.29*1D
$GNGSA,A,3,79,73,80,81,69,70,71,82,,,,,1.49,0.74,1.29*16
$GPGSV,3,1,11,06,12,052,27,10,00,243,,11,14,088,27,12,56,047,36*7E
$GPGSV,3,2,11,24,34,120,37,25,70,297,36,28,21,305,35,29,35,187,40*79
$GPGSV,3,3,11,32,47,285,40,36,34,141,34,49,41,166,39*42
$GLGSV,3,1,10,69,07,196,19,70,38,254,24,71,28,315,32,73,23,289,26*69
$GLGSV,3,2,10,79,31,067,31,80,59,353,33,81,36,059,34,82,35,122,26*65
$GLGSV,3,3,10,83,09,158,,88,04,016,*69
$GNGLL,4128.96590,N,00416.71241,W,195009.00,A,D*6A
$GNRMC,195010.00,A,4128.96592,N,00416.71244,W,0.024,,141023,,,D*7F
$GNVTG,,T,,M,0.024,N,0.044,K,D*3E
$GNGGA,195010.00,4128.96592,N,00416.71244,W,2,12,0.74,885.8,M,50.2,M,,0000*5C
$GNGSA,A,3,24,12,25,32,06,29,28,11,,,,,1.49,0.74,1.29*1D
$GNGSA,A,3,79,73,80,81,69,70,71,82,,,,,1.49,0.74,1.29*16
$GPGSV,3,1,11,06,12,052,27,10,00,243,,11,14,088,27,12,56,047,37*7F
$GPGSV,3,2,11,24,34,120,37,25,70,297,36,28,21,305,35,29,35,187,41*78
$GPGSV,3,3,11,32,47,285,39,36,34,141,34,49,41,166,38*4D
$GLGSV,3,1,10,69,07,196,19,70,38,254,25,71,28,315,32,73,23,289,26*68
$GLGSV,3,2,10,79,31,067,31,80,59,353,33,81,36,059,35,82,35,122,26*64
$GLGSV,3,3,10,83,09,158,,88,04,016,*69
$GNGLL,4128.96592,N,00416.71244,W,195010.00,A,D*65
$GNRMC,195011.00,A,4128.96596,N,00416.71246,W,0.017,,141023,,,D*78
$GNVTG,,T,,M,0.017,N,0.032,K,D*3F
$GNGGA,195011.00,4128.96596,N,00416.71246,W,2,12,0.74,885.9,M,50.2,M,,0000*5A
$GNGSA,A,3,24,12,25,32,06,29,28,11,,,,,1.49,0.74,1.29*1D
$GNGSA,A,3,79,73,80,81,69,70,71,82,,,,,1.49,0.74,1.29*16
$GPGSV,3,1,11,06,12,052,26,10,00,243,,11,14,088,27,12,56,047,36*7F
$GPGSV,3,2,11,24,34,120,37,25,70,297,35,28,21,305,35,29,35,187,41*7B
$GPGSV,3,3,11,32,47,285,40,36,34,141,34,49,41,166,39*42
$GLGSV,3,1,10,69,07,196,18,70,38,254,24,71,28,315,32,73,23,289,26*68
$GLGSV,3,2,10,79,31,067,31,80,59,353,32,81,36,059,34,82,35,122,26*64
$GLGSV,3,3,10,83,09,158,,88,04,016,*69
$GNGLL,4128.96596,N,00416.71246,W,195011.00,A,D*62
$GNRMC,195012.00,A,4128.96594,N,00416.71248,W,0.019,,141023,,,D*79
$GNVTG,,T,,M,0.019,N,0.035,K,D*36
$GNGGA,195012.00,4128.96594,N,00416.71248,W,2,12,0.74,886.0,M,50.2,M,,0000*5F
$GNGSA,A,3,24,12,25,32,06,29,28,11,,,,,1.49,0.74,1.29*1D
$GNGSA,A,3,79,73,80,81,69,70,71,82,,,,,1.49,0.74,1.29*16
$GPGSV,3,1,11,06,12,052,25,10,00,243,,11,14,088,26,12,56,047,34*7F
$GPGSV,3,2,11,24,34,120,35,25,70,297,33,28,21,305,34,29,35,187,38*70
$GPGSV,3,3,11,32,47,285,38,36,34,141,32,49,41,166,37*45
$GLGSV,3,1,10,69,06,196,17,70,38,254,24,71,28,315,32,73,23,289,26*66
$GLGSV,3,2,10,79,31,067,31,80,59,353,33,81,36,059,34,82,35,122,25*66
$GLGSV,3,3,10,83,09,158,,88,04,016,*69
$GNGLL,4128.96594,N,00416.71248,W,195012.00,A,D*6D
$GNRMC,195013.00,A,4128.96594,N,00416.71248,W,0.015,,141023,,,D*74
$GNVTG,,T,,M,0.015,N,0.027,K,D*39
$GNGGA,195013.00,4128.96594,N,00416.71248,W,2,12,0.74,886.1,M,50.2,M,,0000*5F
$GNGSA,A,3,24,12,25,32,06,29,28,11,,,,,1.49,0.74,1.29*1D
$GNGSA,A,3,79,73,80,81,69,70,71,82,,,,,1.49,0.74,1.29*16
$GPGSV,3,1,11,06,12,052,25,10,00,243,,11,14,088,26,12,56,047,37*7C
$GPGSV,3,2,11,24,34,120,37,25,70,297,36,28,21,305,35,29,35,187,40*79
$GPGSV,3,3,11,32,47,285,40,36,34,141,34,49,41,166,38*43
$GLGSV,3,1,10,69,06,196,18,70,37,253,24,71,28,315,32,73,23,289,26*61
$GLGSV,3,2,10,79,31,067,31,80,59,353,32,81,36,059,34,82,35,122,25*67
$GLGSV,3,3,10,83,09,158,,88,04,016,*69
$GNGLL,4128.96594,N,00416.71248,W,195013.00,A,D*6C
$GNRMC,195014.00,A,4128.96595,N,00416.71245,W,0.019,,141023,,,D*73
$GNVTG,,T,,M,0.019,N,0.036,K,D*35
$GNGGA,195014.00,4128.96595,N,00416.71245,W,2,12,0.74,886.1,M,50.2,M,,0000*54
$GNGSA,A,3,24,12,25,32,06,29,28,11,,,,,1.49,0.74,1.29*1D
$GNGSA,A,3,79,73,80,81,69,70,71,82,,,,,1.49,0.74,1.29*16
$GPGSV,3,1,11,06,12,052,26,10,00,243,,11,14,088,27,12,56,047,37*7E
$GPGSV,3,2,11,24,34,120,38,25,70,297,36,28,21,305,35,29,35,187,41*77
$GPGSV,3,3,11,32,47,285,40,36,34,141,34,49,41,166,38*43
$GLGSV,3,1,10,69,06,196,19,70,37,253,24,71,28,315,32,73,23,289,26*60
$GLGSV,3,2,10,79,31,067,31,80,59,353,32,81,36,059,34,82,35,122,25*67
$GLGSV,3,3,10,83,09,158,,88,04,016,*69
$GNGLL,4128.96595,N,00416.71245,W,195014.00,A,D*67
$GNRMC,195015.00,A,4128.96596,N,00416.71243,W,0.006,,141023,,,D*79
$GNVTG,,T,,M,0.006,N,0.012,K,D*3D
$GNGGA,195015.00,4128.96596,N,00416.71243,W,2,12,0.74,886.1,M,50.2,M,,0000*50
$GNGSA,A,3,24,12,25,32,06,29,28,11,,,,,1.49,0.74,1.29*1D
$GNGSA,A,3,79,73,80,81,69,70,71,82,,,,,1.49,0.74,1.29*16
$GPGSV,3,1,11,06,12,052,25,10,00,243,,11,14,088,27,12,56,047,37*7D
$GPGSV,3,2,11,24,34,120,38,25,70,297,36,28,21,305,34,29,35,187,41*76
$GPGSV,3,3,11,32,47,285,40,36,34,141,33,49,41,166,38*44
$GLGSV,3,1,10,69,06,196,18,70,37,253,25,71,28,315,32,73,23,289,26*60
$GLGSV,3,2,10,79,31,067,31,80,59,353,33,81,36,059,34,82,35,122,25*66
$GLGSV,3,3,10,83,09,158,,88,04,016,*69
$GNGLL,4128.96596,N,00416.71243,W,195015.00,A,D*63
$GNRMC,195016.00,A,4128.96596,N,00416.71241,W,0.023,,141023,,,D*7F
$GNVTG,,T,,M,0.023,N,0.043,K,D*3E
$GNGGA,195016.00,4128.96596,N,00416.71241,W,2,12,0.74,886.2,M,50.2,M,,0000*52
$GNGSA,A,3,24,12,25,32,06,29,28,11,,,,,1.49,0.74,1.29*1D
$GNGSA,A,3,79,73,80,81,69,70,71,82,,,,,1.49,0.74,1.29*16
$GPGSV,3,1,11,06,12,052,26,10,00,243,,11,14,088,27,12,56,047,37*7E
$GPGSV,3,2,11,24,34,120,38,25,70,297,36,28,21,305,35,29,35,187,41*77
$GPGSV,3,3,11,32,47,285,39,36,34,141,34,49,41,166,38*4D
$GLGSV,3,1,10,69,06,196,18,70,37,253,24,71,28,315,32,73,23,290,26*69
$GLGSV,3,2,10,79,31,067,32,80,59,353,33,81,36,059,34,82,35,122,25*65
$GLGSV,3,3,10,83,09,158,,88,04,016,*69
$GNGLL,4128.96596,N,00416.71241,W,195016.00,A,D*62
$GNRMC,195017.00,A,4128.96596,N,00416.71239,W,0.014,,141023,,,D*75
$GNVTG,,T,,M,0.014,N,0.026,K,D*39
$GNGGA,195017.00,4128.96596,N,00416.71239,W,2,12,0.74,886.1,M,50.2,M,,0000*5F
$GNGSA,A,3,24,12,25,32,06,29,28,11,,,,,1.49,0.74,1.29*1D
$GNGSA,A,3,79,73,80,81,69,70,71,82,,,,,1.49,0.74,1.29*16
$GPGSV,3,1,11,06,12,052,25,10,00,243,,11,14,088,27,12,56,047,37*7D
$GPGSV,3,2,11,24,34,120,38,25,70,297,36,28,21,305,35,29,35,187,41*77
$GPGSV,3,3,11,32,47,285,39,36,34,141,34,49,41,166,38*4D
$GLGSV,3,1,10,69,06,196,16,70,37,253,23,71,28,315,31,73,23,290,25*60
$GLGSV,3,2,10,79,31,067,32,80,59,353,33,81,36,059,34,82,35,122,25*65
$GLGSV,3,3,10,83,09,158,,88,04,016,*69
$GNGLL,4128.96596,N,00416.71239,W,195017.00,A,D*6C
$GNRMC,195018.00,A,4128.96595,N,00416.71240,W,0.002,,141023,,,D*70
$GNVTG,,T,,M,0.002,N,0.004,K,D*3E
$GNGGA,195018.00,4128.96595,N,00416.71240,W,2,12,0.74,886.2,M,50.2,M,,0000*5E
$GNGSA,A,3,24,12,25,32,06,29,28,11,,,,,1.49,0.74,1.29*1D
$GNGSA,A,3,79,73,80,81,69,70,71,82,,,,,1.49,0.74,1.29*16
$GPGSV,3,1,11,06,12,052,25,10,00,243,,11,14,088,26,12,56,047,35*7E
$GPGSV,3,2,11,24,34,120,36,25,70,297,36,28,21,305,34,29,35,187,39*77
$GPGSV,3,3,11,32,47,285,38,36,34,141,33,49,41,166,36*45
$GLGSV,3,1,10,69,06,196,16,70,37,253,24,71,28,315,31,73,23,290,25*67
$GLGSV,3,2,10,79,31,067,33,80,59,353,32,81,36,059,34,82,35,122,25*65
$GLGSV,3,3,10,83,09,158,,88,04,016,*69
$GNGLL,4128.96595,N,00416.71240,W,195018.00,A,D*6E
$GNRMC,195019.00,A,4128.96596,N,00416.71230,W,0.030,,141023,,,D*74
$GNVTG,,T,,M,0.030,N,0.056,K,D*38
$GNGGA,195019.00,4128.96596,N,00416.71230,W,2,12,0.74,886.1,M,50.2,M,,0000*58
$GNGSA,A,3,24,12,25,32,06,29,28,11,,,,,1.49,0.74,1.29*1D
$GNGSA,A,3,79,73,80,81,69,70,71,82,,,,,1.49,0.74,1.29*16
$GPGSV,3,1,11,06,12,052,25,10,00,243,,11,14,088,26,12,56,047,37*7C
$GPGSV,3,2,11,24,34,120,39,25,70,297,36,28,21,305,34,29,35,187,41*77
$GPGSV,3,3,11,32,47,285,40,36,34,141,33,49,41,166,37*4B
$GLGSV,3,1,10,69,06,196,18,70,37,253,24,71,28,315,31,73,23,290,25*69
$GLGSV,3,2,10,79,31,067,32,80,59,353,33,81,36,059,34,82,35,122,25*65
$GLGSV,3,3,10,83,09,158,,88,04,016,*69
$GNGLL,4128.96596,N,00416.71230,W,195019.00,A,D*6B
$GNRMC,195020.00,A,4128.96598,N,00416.71220,W,0.037,,141023,,,D*76
$GNVTG,,T,,M,0.037,N,0.068,K,D*32
$GNGGA,195020.00,4128.96598,N,00416.71220,W,2,12,0.74,886.0,M,50.2,M,,0000*5C
$GNGSA,A,3,24,12,25,32,06,29,28,11,,,,,1.49,0.74,1.29*1D
$GNGSA,A,3,79,73,80,81,69,70,71,82,,,,,1.49,0.74,1.29*16
$GPGSV,3,1,11,06,12,052,26,10,00,243,,11,14,088,26,12,56,047,37*7F
$GPGSV,3,2,11,24,34,120,39,25,70,297,36,28,21,305,34,29,35,187,41*77
$GPGSV,3,3,11,32,47,285,39,36,34,141,33,49,41,166,38*4A
$GLGSV,3,1,10,69,06,196,18,70,37,253,24,71,28,315,31,73,23,290,25*69
$GLGSV,3,2,10,79,31,067,33,80,59,353,33,81,36,059,34,82,35,122,25*64
$GLGSV,3,3,10,83,09,158,,88,04,016,*69
$GNGLL,4128.96598,N,00416.71220,W,195020.00,A,D*6E
$GNRMC,195021.00,A,4128.96601,N,00416.71214,W,0.031,,141023,,,D*75
$GNVTG,,T,,M,0.031,N,0.057,K,D*38
$GNGGA,195021.00,4128.96601,N,00416.71214,W,2,12,0.74,885.9,M,50.2,M,,0000*53
$GNGSA,A,3,24,12,25,32,06,29,28,11,,,,,1.49,0.74,1.29*1D
$GNGSA,A,3,79,73,80,81,69,70,71,82,,,,,1.49,0.74,1.29*16
$GPGSV,3,1,11,06,12,052,27,10,00,243,,11,14,088,26,12,56,047,37*7E
$GPGSV,3,2,11,24,34,120,39,25,70,297,37,28,21,305,35,29,35,187,41*77
$GPGSV,3,3,11,32,47,285,39,36,34,141,34,49,41,166,38*4D
$GLGSV,3,1,10,69,06,196,18,70,37,253,24,71,28,315,31,73,23,290,25*69
$GLGSV,3,2,10,79,31,067,33,80,59,353,33,81,36,059,34,82,35,122,25*64
$GLGSV,3,3,10,83,09,158,,88,04,016,*69
$GNGLL,4128.96601,N,00416.71214,W,195021.00,A,D*6B
$GNRMC,195022.00,A,4128.96604,N,00416.71207,W,0.005,,141023,,,D*76
$GNVTG,,T,,M,0.005,N,0.009,K,D*34
$GNGGA,195022.00,4128.96604,N,00416.71207,W,2,12,0.74,885.8,M,50.2,M,,0000*56
$GNGSA,A,3,24,12,25,32,06,29,28,11,,,,,1.49,0.74,1.29*1D
$GNGSA,A,3,79,73,80,81,69,70,71,82,,,,,1.49,0.74,1.29*16
$GPGSV,3,1,11,06,12,052,26,10,00,243,,11,14,088,26,12,56,047,37*7F
$GPGSV,3,2,11,24,34,120,39,25,70,297,37,28,21,305,35,29,35,187,41*77
$GPGSV,3,3,11,32,47,285,39,36,34,141,34,49,41,166,38*4D
$GLGSV,3,1,10,69,06,196,17,70,37,253,23,71,28,315,31,73,23,290,25*61
$GLGSV,3,2,10,79,30,068,34,80,59,353,33,81,36,059,34,82,35,122,25*6D
$GLGSV,3,3,10,83,09,158,,88,04,016,*69
$GNGLL,4128.96604,N,00416.71207,W,195022.00,A,D*6F
$GNRMC,195023.00,A,4128.96605,N,00416.71202,W,0.031,,141023,,,D*74
$GNVTG,,T,,M,0.031,N,0.058,K,D*37
$GNGGA,195023.00,4128.96605,N,00416.71202,W,2,12,0.74,885.8,M,50.2,M,,0000*53
$GNGSA,A,3,24,12,25,32,06,29,28,11,,,,,1.49,0.74,1.29*1D
$GNGSA,A,3,79,73,80,81,69,70,71,82,,,,,1.49,0.74,1.29*16
$GPGSV,3,1,11,06,12,052,26,10,00,243,,11,14,088,27,12,56,047,37*7E
$GPGSV,3,2,11,24,34,120,39,25,70,297,37,28,21,305,35,29,35,187,41*77
$GPGSV,3,3,11,32,47,285,39,36,34,141,34,49,41,166,38*4D
$GLGSV,3,1,10,69,06,196,17,70,37,253,23,71,28,315,31,73,23,290,25*61
$GLGSV,3,2,10,79,30,068,34,80,59,354,33,81,36,059,34,82,35,122,25*6A
$GLGSV,3,3,10,83,09,158,,88,04,016,*69
$GNGLL,4128.96605,N,00416.71202,W,195023.00,A,D*6A
$GNRMC,195024.00,A,4128.96607,N,00416.71184,W,0.025,,141023,,,D*79
$GNVTG,,T,,M,0.025,N,0.046,K,D*3D
$GNGGA,195024.00,4128.96607,N,00416.71184,W,2,12,0.74,885.6,M,50.2,M,,0000*55
$GNGSA,A,3,24,12,25,32,06,29,28,11,,,,,1.49,0.74,1.29*1D
$GNGSA,A,3,79,73,80,81,69,70,71,82,,,,,1.49,0.74,1.29*16
$GPGSV,3,1,11,06,12,052,26,10,00,243,,11,14,088,27,12,56,047,37*7E
$GPGSV,3,2,11,24,34,120,40,25,70,297,37,28,21,305,35,29,35,187,41*79
$GPGSV,3,3,11,32,47,285,39,36,34,141,33,49,41,166,38*4A
$GLGSV,3,1,10,69,06,196,16,70,37,253,23,71,28,315,32,73,23,290,25*63
$GLGSV,3,2,10,79,30,068,34,80,59,354,33,81,36,058,34,82,35,122,25*6B
$GLGSV,3,3,10,83,09,158,,88,04,016,*69
$GNGLL,4128.96607,N,00416.71184,W,195024.00,A,D*62
$GNRMC,195025.00,A,4128.96608,N,00416.71170,W,0.018,,141023,,,D*72
$GNVTG,,T,,M,0.018,N,0.034,K,D*36
$GNGGA,195025.00,4128.96608,N,00416.71170,W,2,12,0.74,885.5,M,50.2,M,,0000*53
$GNGSA,A,3,24,12,25,32,06,29,28,11,,,,,1.49,0.74,1.29*1D
$GNGSA,A,3,79,73,80,81,69,70,71,82,,,,,1.49,0.74,1.29*16
$GPGSV,3,1,11,06,12,052,25,10,00,243,,11,14,088,26,12,56,047,37*7C
$GPGSV,3,2,11,24,34,120,40,25,70,297,37,28,21,305,35,29,35,187,41*79
$GPGSV,3,3,11,32,47,285,39,36,34,141,34,49,41,166,38*4D
$GLGSV,3,1,10,69,06,196,14,70,37,253,24,71,28,315,32,73,23,290,25*66
$GLGSV,3,2,10,79,30,068,34,80,59,354,33,81,36,058,34,82,36,121,24*6A
$GLGSV,3,3,10,83,09,158,,88,04,016,*69
$GNGLL,4128.96608,N,00416.71170,W,195025.00,A,D*67
$GNRMC,195026.00,A,4128.96609,N,00416.71164,W,0.009,,141023,,,D*75
$GNVTG,,T,,M,0.009,N,0.017,K,D*37
$GNGGA,195026.00,4128.96609,N,00416.71164,W,2,12,0.74,885.4,M,50.2,M,,0000*55
$GNGSA,A,3,24,12,25,32,06,29,28,11,,,,,1.49,0.74,1.29*1D
$GNGSA,A,3,79,73,80,81,69,70,71,82,,,,,1.49,0.74,1.29*16
$GPGSV,3,1,11,06,12,052,25,10,00,243,,11,14,088,27,12,56,047,37*7D
$GPGSV,3,2,11,24,34,120,40,25,70,297,37,28,21,305,34,29,35,187,41*78
$GPGSV,3,3,11,32,47,285,39,36,34,141,34,49,41,166,38*4D
$GLGSV,3,1,10,69,06,196,14,70,37,253,24,71,28,315,32,73,23,290,24*67
$GLGSV,3,2,10,79,30,068,33,80,59,354,33,81,36,058,33,82,36,121,24*6A
$GLGSV,3,3,10,83,09,158,,88,04,016,*69
$GNGLL,4128.96609,N,00416.71164,W,195026.00,A,D*60
$GNRMC,195027.00,A,4128.96609,N,00416.71159,W,0.007,,141023,,,D*74
$GNVTG,,T,,M,0.007,N,0.012,K,D*3C
$GNGGA,195027.00,4128.96609,N,00416.71159,W,2,12,0.74,885.4,M,50.2,M,,0000*5A
$GNGSA,A,3,24,12,25,32,06,29,28,11,,,,,1.49,0.74,1.29*1D
$GNGSA,A,3,79,73,80,81,69,70,71,82,,,,,1.49,0.74,1.29*16
$GPGSV,3,1,11,06,12,052,23,10,00,243,,11,14,088,26,12,56,047,37*7A
$GPGSV,3,2,11,24,34,120,40,25,70,297,37,28,21,305,34,29,35,187,41*78
$GPGSV,3,3,11,32,47,285,39,36,34,141,33,49,41,166,38*4A
$GLGSV,3,1,10,69,06,196,14,70,37,253,24,71,28,315,32,73,23,290,24*67
$GLGSV,3,2,10,79,30,068,33,80,59,354,33,81,36,058,33,82,36,121,23*6D
$GLGSV,3,3,10,83,09,158,,88,04,016,*69
$GNGLL,4128.96609,N,00416.71159,W,195027.00,A,D*6F
$GNRMC,195028.00,A,4128.96610,N,00416.71154,W,0.012,,141023,,,D*7A
$GNVTG,,T,,M,0.012,N,0.022,K,D*3B
$GNGGA,195028.00,4128.96610,N,00416.71154,W,2,12,0.74,885.4,M,50.2,M,,0000*50
$GNGSA,A,3,24,12,25,32,06,29,28,11,,,,,1.49,0.74,1.29*1D
$GNGSA,A,3,79,73,80,81,69,70,71,82,,,,,1.49,0.74,1.29*16
$GPGSV,3,1,11,06,12,052,23,10,00,243,,11,14,088,26,12,56,047,37*7A
$GPGSV,3,2,11,24,34,120,40,25,70,297,37,28,21,305,34,29,35,187,41*78
$GPGSV,3,3,11,32,47,285,39,36,34,141,34,49,41,166,38*4D
$GLGSV,3,1,10,69,06,196,16,70,37,253,24,71,28,315,32,73,23,290,25*64
$GLGSV,3,2,10,79,30,068,33,80,59,354,33,81,36,058,33,82,36,121,22*6C
$GLGSV,3,3,10,83,09,158,,88,04,016,*69
$GNGLL,4128.96610,N,00416.71154,W,195028.00,A,D*65
$GNRMC,195029.00,A,4128.96611,N,00416.71151,W,0.006,,141023,,,D*7A
$GNVTG,,T,,M,0.006,N,0.010,K,D*3F
$GNGGA,195029.00,4128.96611,N,00416.71151,W,2,12,0.74,885.4,M,50.2,M,,0000*55
$GNGSA,A,3,24,12,25,32,06,29,28,11,,,,,1.49,0.74,1.29*1D
$GNGSA,A,3,79,73,80,81,69,70,71,82,,,,,1.49,0.74,1.29*16
$GPGSV,3,1,11,06,12,052,23,10,00,243,,11,14,088,27,12,56,047,37*7B
$GPGSV,3,2,11,24,34,120,40,25,70,297,38,28,21,305,34,29,35,187,41*77
$GPGSV,3,3,11,32,47,285,39,36,34,141,34,49,41,166,38*4D
$GLGSV,3,1,10,69,06,196,17,70,37,253,24,71,28,315,32,73,23,290,25*65
$GLGSV,3,2,10,79,30,068,33,80,59,354,33,81,36,058,33,82,36,121,22*6C
$GLGSV,3,3,10,83,09,158,,88,04,016,*69
$GNGLL,4128.96611,N,00416.71151,W,195029.00,A,D*60
$GNRMC,195030.00,A,4128.96612,N,00416.71149,W,0.010,,141023,,,D*7F
$GNVTG,,T,,M,0.010,N,0.019,K,D*31
$GNGGA,195030.00,4128.96612,N,00416.71149,W,2,12,0.74,885.3,M,50.2,M,,0000*50
$GNGSA,A,3,24,12,25,32,06,29,28,11,,,,,1.49,0.74,1.29*1D
$GNGSA,A,3,79,73,80,81,69,70,71,82,,,,,1.49,0.74,1.29*16
$GPGSV,3,1,11,06,12,052,23,10,00,243,,11,14,088,27,12,56,047,37*7B
$GPGSV,3,2,11,24,34,120,40,25,70,297,38,28,21,305,34,29,35,187,41*77
$GPGSV,3,3,11,32,47,285,39,36,34,141,34,49,41,166,38*4D
$GLGSV,3,1,10,69,06,196,16,70,37,253,24,71,28,315,32,73,23,290,25*64
$GLGSV,3,2,10,79,30,068,33,80,59,354,33,81,36,058,33,82,36,121,21*6F
$GLGSV,3,3,10,83,09,158,,88,04,016,*69
$GNGLL,4128.96612,N,00416.71149,W,195030.00,A,D*62
$GNRMC,195031.00,A,4128.96613,N,00416.71147,W,0.014,,141023,,,D*75
$GNVTG,,T,,M,0.014,N,0.026,K,D*39
$GNGGA,195031.00,4128.96613,N,00416.71147,W,2,12,0.74,885.3,M,50.2,M,,0000*5E
$GNGSA,A,3,24,12,25,32,06,29,28,11,,,,,1.49,0.74,1.29*1D
$GNGSA,A,3,79,73,80,81,69,70,71,82,,,,,1.49,0.74,1.29*16
$GPGSV,3,1,11,06,12,052,23,10,00,243,,11,14,088,27,12,56,047,37*7B
$GPGSV,3,2,11,24,34,120,40,25,70,297,38,28,21,305,34,29,35,187,41*77
$GPGSV,3,3,11,32,47,285,39,36,34,141,34,49,41,166,38*4D
$GLGSV,3,1,10,69,06,196,15,70,37,253,24,71,28,315,32,73,23,290,24*66
$GLGSV,3,2,10,79,30,068,33,80,59,354,33,81,36,058,33,82,36,121,20*6E
$GLGSV,3,3,10,83,09,158,,88,03,016,*6E
$GNGLL,4128.96613,N,00416.71147,W,195031.00,A,D*6C
$GNRMC,195032.00,A,4128.96612,N,00416.71145,W,0.020,,141023,,,D*72
$GNVTG,,T,,M,0.020,N,0.037,K,D*3E
$GNGGA,195032.00,4128.96612,N,00416.71145,W,2,12,0.74,885.2,M,50.2,M,,0000*5F
$GNGSA,A,3,24,12,25,32,06,29,28,11,,,,,1.49,0.74,1.29*1D
$GNGSA,A,3,79,73,80,81,69,70,71,82,,,,,1.49,0.74,1.29*16
$GPGSV,3,1,11,06,12,052,23,10,00,243,,11,14,088,27,12,56,047,37*7B
$GPGSV,3,2,11,24,34,120,40,25,70,297,38,28,21,305,34,29,35,187,41*77
$GPGSV,3,3,11,32,47,285,39,36,34,141,34,49,41,166,38*4D
$GLGSV,3,1,10,69,06,196,17,70,37,253,24,71,28,315,32,73,23,290,24*64
$GLGSV,3,2,10,79,30,068,33,80,59,354,33,81,36,058,33,82,36,121,20*6E
$GLGSV,3,3,10,83,09,158,,88,03,016,*6E
$GNGLL,4128.96612,N,00416.71145,W,195032.00,A,D*6C
$GNRMC,195033.00,A,4128.96612,N,00416.71140,W,0.031,,141023,,,D*76
$GNVTG,,T,,M,0.031,N,0.057,K,D*38
$GNGGA,195033.00,4128.96612,N,00416.71140,W,2,12,0.74,885.2,M,50.2,M,,0000*5B
$GNGSA,A,3,24,12,25,32,06,29,28,11,,,,,1.49,0.74,1.29*1D
$GNGSA,A,3,79,73,80,81,69,70,71,82,,,,,1.49,0.74,1.29*16
$GPGSV,3,1,11,06,12,052,22,10,00,243,,11,14,088,27,12,56,047,37*7A
$GPGSV,3,2,11,24,34,120,40,25,70,297,38,28,21,305,34,29,35,187,41*77
$GPGSV,3,3,11,32,47,285,39,36,34,141,34,49,41,166,38*4D
$GLGSV,3,1,10,69,06,196,17,70,37,253,24,71,28,315,32,73,23,290,24*64
$GLGSV,3,2,10,79,30,068,32,80,59,354,33,81,36,058,33,82,36,121,19*65
$GLGSV,3,3,10,83,09,158,,88,03,016,*6E
$GNGLL,4128.96612,N,00416.71140,W,195033.00,A,D*68
$GNRMC,195034.00,A,4128.96613,N,00416.71135,W,0.019,,141023,,,D*78
$GNVTG,,T,,M,0.019,N,0.036,K,D*35
$GNGGA,195034.00,4128.96613,N,00416.71135,W,2,12,0.74,885.1,M,50.2,M,,0000*5C
$GNGSA,A,3,24,12,25,32,06,29,28,11,,,,,1.49,0.74,1.29*1D
$GNGSA,A,3,79,73,80,81,69,70,71,82,,,,,1.49,0.74,1.29*16
$GPGSV,3,1,11,06,12,052,22,10,00,243,,11,14,088,28,12,56,047,37*75
$GPGSV,3,2,11,24,34,120,40,25,70,297,38,28,21,305,34,29,35,187,41*77
$GPGSV,3,3,11,32,47,285,39,36,34,141,34,49,41,166,38*4D
$GLGSV,3,1,10,69,06,196,16,70,37,253,23,71,28,315,32,73,23,290,24*62
$GLGSV,3,2,10,79,30,068,32,80,59,354,33,81,36,058,33,82,36,121,19*65
$GLGSV,3,3,10,83,09,158,,88,03,016,*6E
$GNGLL,4128.96613,N,00416.71135,W,195034.00,A,D*6C
$GNRMC,195035.00,A,4128.96614,N,00416.71134,W,0.020,,141023,,,D*75
$GNVTG,,T,,M,0.020,N,0.037,K,D*3E
$GNGGA,195035.00,4128.96614,N,00416.71134,W,2,12,0.74,885.2,M,50.2,M,,0000*58
$GNGSA,A,3,24,12,25,32,06,29,28,11,,,,,1.49,0.74,1.30*15
$GNGSA,A,3,79,73,80,81,69,70,71,82,,,,,1.49,0.74,1.30*1E
$GPGSV,3,1,11,06,12,052,21,10,00,243,,11,14,088,27,12,56,047,35*7B
$GPGSV,3,2,11,24,34,120,38,25,70,297,36,28,21,305,33,29,35,187,40*70
$GPGSV,3,3,11,32,47,285,37,36,34,141,33,49,41,166,36*4A
$GLGSV,3,1,10,69,06,196,17,70,37,253,24,71,28,315,31,73,23,290,24*67
$GLGSV,3,2,10,79,30,068,32,80,59,354,33,81,36,058,33,82,36,121,18*64
$GLGSV,3,3,10,83,09,158,,88,03,016,*6E
$GNGLL,4128.96614,N,00416.71134,W,195035.00,A,D*6B
$GNRMC,195036.00,A,4128.96613,N,00416.71132,W,0.014,,141023,,,D*70
$GNVTG,,T,,M,0.014,N,0.026,K,D*39
$GNGGA,195036.00,4128.96613,N,00416.71132,W,2,12,0.74,884.9,M,50.2,M,,0000*50
$GNGSA,A,3,24,12,25,32,06,29,28,11,,,,,1.49,0.74,1.30*15
$GNGSA,A,3,79,73,80,81,69,70,71,82,,,,,1.49,0.74,1.30*1E
$GPGSV,3,1,11,06,12,051,22,10,00,243,,11,14,088,28,12,56,047,38*79
$GPGSV,3,2,11,24,34,120,40,25,70,297,38,28,21,305,34,29,35,187,42*74
$GPGSV,3,3,11,32,47,285,39,36,34,141,34,49,41,166,38*4D
$GLGSV,3,1,10,69,06,196,19,70,37,253,25,71,28,315,31,73,23,290,24*68
$GLGSV,3,2,10,79,30,068,32,80,59,354,33,81,36,058,33,82,36,121,16*6A
$GLGSV,3,3,10,83,09,158,,88,03,016,*6E
$GNGLL,4128.96613,N,00416.71132,W,195036.00,A,D*69
$GNRMC,195037.00,A,4128.96613,N,00416.71131,W,0.018,,141023,,,D*7E
$GNVTG,,T,,M,0.018,N,0.034,K,D*36
$GNGGA,195037.00,4128.96613,N,00416.71131,W,2,12,0.79,884.7,M,50.2,M,,0000*51
$GNGSA,A,3,24,12,25,32,06,29,28,11,,,,,1.52,0.79,1.30*12
$GNGSA,A,3,79,73,80,81,69,70,71,82,,,,,1.52,0.79,1.30*19
$GPGSV,3,1,11,06,12,051,22,10,00,243,,11,14,088,28,12,56,047,38*79
$GPGSV,3,2,11,24,34,120,41,25,70,297,38,28,21,305,35,29,35,187,42*74
$GPGSV,3,3,11,32,47,285,39,36,34,141,34,49,41,166,39*4C
$GLGSV,3,1,10,69,06,196,19,70,37,253,25,71,28,315,31,73,23,290,24*68
$GLGSV,3,2,10,79,30,068,31,80,59,354,34,81,36,058,33,82,36,121,15*6D
$GLGSV,3,3,10,83,09,158,,88,03,016,*6E
$GNGLL,4128.96613,N,00416.71131,W,195037.00,A,D*6B
$GNRMC,195038.00,A,4128.96613,N,00416.71133,W,0.014,,141023,,,D*7F
$GNVTG,,T,,M,0.014,N,0.025,K,D*3A
$GNGGA,195038.00,4128.96613,N,00416.71133,W,2,12,0.78,884.3,M,50.2,M,,0000*59
$GNGSA,A,3,24,12,25,32,06,29,28,11,,,,,1.51,0.78,1.30*10
$GNGSA,A,3,79,73,80,81,69,70,71,,,,,,1.51,0.78,1.30*11
$GPGSV,3,1,11,06,12,051,22,10,00,243,,11,14,088,28,12,56,047,38*79
$GPGSV,3,2,11,24,34,120,41,25,70,297,39,28,21,305,34,29,35,187,42*74
$GPGSV,3,3,11,32,47,285,39,36,34,141,34,49,41,166,39*4C
$GLGSV,3,1,10,69,06,196,18,70,37,253,24,71,28,315,31,73,23,290,23*6F
$GLGSV,3,2,10,79,30,068,31,80,59,354,34,81,36,058,33,82,36,121,10*68
$GLGSV,3,3,10,83,09,158,,88,03,016,*6E
$GNGLL,4128.96613,N,00416.71133,W,195038.00,A,D*66
$GNRMC,195039.00,A,4128.96613,N,00416.71132,W,0.012,,141023,,,D*79
$GNVTG,,T,,M,0.012,N,0.023,K,D*3A
$GNGGA,195039.00,4128.96613,N,00416.71132,W,2,12,0.65,884.1,M,50.2,M,,0000*57
$GNGSA,A,3,24,12,25,32,06,29,28,11,,,,,1.30,0.65,1.12*1B
$GNGSA,A,3,79,73,80,81,69,70,71,82,,,,,1.30,0.65,1.12*10
$GPGSV,3,1,11,06,12,051,22,10,00,243,,11,14,088,29,12,56,047,38*78
$GPGSV,3,2,11,24,34,120,40,25,70,297,39,28,21,305,34,29,35,187,42*75
$GPGSV,3,3,11,32,47,285,39,36,34,141,35,49,41,166,39*4D
$GLGSV,3,1,10,69,06,196,18,70,37,253,24,71,28,315,31,73,23,290,23*6F
$GLGSV,3,2,10,79,30,068,31,80,59,354,34,81,36,058,33,82,36,121,08*61
$GLGSV,3,3,10,83,09,158,,88,03,016,*6E
$GNGLL,4128.96613,N,00416.71132,W,195039.00,A,D*66
$GNRMC,195040.00,A,4128.96615,N,00416.71132,W,0.024,,141023,,,D*74
$GNVTG,,T,,M,0.024,N,0.044,K,D*3E
$GNGGA,195040.00,4128.96615,N,00416.71132,W,2,12,0.68,883.9,M,50.2,M,,0000*5D
$GNGSA,A,3,24,12,25,32,06,29,28,11,,,,,1.32,0.68,1.14*12
$GNGSA,A,3,79,73,80,81,69,70,71,82,,,,,1.32,0.68,1.14*19
$GPGSV,3,1,11,06,12,051,21,10,00,243,,11,14,088,29,12,56,047,38*7B
$GPGSV,3,2,11,24,34,120,41,25,70,297,39,28,21,305,34,29,35,187,42*74
$GPGSV,3,3,11,32,47,285,39,36,34,141,34,49,41,166,39*4C
$GLGSV,3,1,10,69,06,196,18,70,37,253,24,71,28,315,31,73,23,290,23*6F
$GLGSV,3,2,10,79,30,068,31,80,59,354,34,81,36,058,33,82,36,121,09*60
$GLGSV,3,3,10,83,09,158,,88,03,016,*6E
$GNGLL,4128.96615,N,00416.71132,W,195040.00,A,D*6E
$GNRMC,195041.00,A,4128.96615,N,00416.71128,W,0.014,,141023,,,D*7D
$GNVTG,,T,,M,0.014,N,0.026,K,D*39
$GNGGA,195041.00,4128.96615,N,00416.71128,W,2,12,0.65,883.9,M,50.2,M,,0000*5A
