$GNGSA,A,3,79,73,80,81,71,82,83,,,,,,1.36,0.74,1.13*14
$GPGSV,3,1,11,06,10,039,31,11,19,075,35,12,44,057,41,24,22,129,41*75
$GPGSV,3,2,11,25,74,346,38,28,33,309,40,29,50,187,32,31,08,306,38*77
$GPGSV,3,3,11,32,47,263,40,36,34,141,,49,41,166,37*43
$GLGSV,3,1,09,70,26,239,,71,31,297,38,72,08,340,,73,33,303,30*6B
$GLGSV,3,2,09,79,21,081,26,80,59,025,27,81,30,041,14,82,47,104,19*65
$GLGSV,3,3,09,83,24,153,20*54
$GNGLL,4128.96604,N,00416.71206,W,202051.00,A,D*67
$GNRMC,202052.00,A,4128.96601,N,00416.71208,W,0.009,,141023,,,D*7A
$GNVTG,,T,,M,0.009,N,0.017,K,D*37
$GNGGA,202052.00,4128.96601,N,00416.71208,W,2,12,0.73,874.7,M,50.2,M,,0000*50
$GNGSA,A,3,24,12,25,32,31,06,29,28,11,,,,1.34,0.73,1.13*1B
$GNGSA,A,3,79,73,80,81,71,82,83,,,,,,1.34,0.73,1.13*11
$GPGSV,3,1,11,06,10,039,30,11,19,075,35,12,44,057,41,24,22,129,41*74
$GPGSV,3,2,11,25,74,346,38,28,33,309,40,29,50,187,32,31,08,306,38*77
$GPGSV,3,3,11,32,47,263,40,36,34,141,,49,41,166,37*43
$GLGSV,3,1,09,70,26,239,,71,31,297,38,72,08,340,,73,33,303,30*6B
$GLGSV,3,2,09,79,21,081,27,80,59,025,28,81,30,041,14,82,47,104,18*6A
$GLGSV,3,3,09,83,24,153,21*55
$GNGLL,4128.96601,N,00416.71208,W,202052.00,A,D*6F
$GNRMC,202053.00,A,4128.96596,N,00416.71210,W,0.015,,141023,,,D*72
$GNVTG,,T,,M,0.015,N,0.028,K,D*36
$GNGGA,202053.00,4128.96596,N,00416.71210,W,2,12,0.73,874.7,M,50.2,M,,0000*55
$GNGSA,A,3,24,12,25,32,31,06,29,28,11,,,,1.34,0.73,1.13*1B
$GNGSA,A,3,79,73,80,81,71,82,83,,,,,,1.34,0.73,1.13*11
$GPGSV,3,1,11,06,10,039,30,11,19,075,35,12,44,057,41,24,22,129,41*74
$GPGSV,3,2,11,25,74,346,38,28,33,309,40,29,50,187,32,31,08,306,38*77
$GPGSV,3,3,11,32,47,263,40,36,34,141,,49,41,166,37*43
$GLGSV,3,1,09,70,26,239,,71,31,297,37,72,08,340,,73,33,303,31*65
$GLGSV,3,2,09,79,21,081,27,80,59,025,28,81,30,041,13,82,47,104,19*6C
$GLGSV,3,3,09,83,24,153,20*54
$GNGLL,4128.96596,N,00416.71210,W,202053.00,A,D*6A
$GNRMC,202054.00,A,4128.96592,N,00416.71212,W,0.018,,141023,,,D*7E
$GNVTG,,T,,M,0.018,N,0.034,K,D*36
$GNGGA,202054.00,4128.96592,N,00416.71212,W,2,12,0.73,874.8,M,50.2,M,,0000*5B
$GNGSA,A,3,24,12,25,32,31,06,29,28,11,,,,1.34,0.73,1.13*1B
$GNGSA,A,3,79,73,80,81,71,82,83,,,,,,1.34,0.73,1.13*11
$GPGSV,3,1,11,06,10,039,30,11,19,075,35,12,44,057,41,24,22,129,41*74
$GPGSV,3,2,11,25,74,346,38,28,33,309,40,29,50,187,32,31,08,306,38*77
$GPGSV,3,3,11,32,47,263,40,36,34,141,,49,41,166,37*43
$GLGSV,3,1,09,70,26,239,,71,31,297,37,72,08,340,,73,33,303,30*64
$GLGSV,3,2,09,79,21,081,28,80,59,025,28,81,30,041,11,82,47,104,19*61
$GLGSV,3,3,09,83,24,153,20*54
$GNGLL,4128.96592,N,00416.71212,W,202054.00,A,D*6B
$GNRMC,202055.00,A,4128.96589,N,00416.71212,W,0.031,,141023,,,D*7E
$GNVTG,,T,,M,0.031,N,0.057,K,D*38
$GNGGA,202055.00,4128.96589,N,00416.71212,W,2,12,0.73,874.9,M,50.2,M,,0000*51
$GNGSA,A,3,24,12,25,32,31,06,29,28,11,,,,1.34,0.73,1.13*1B
$GNGSA,A,3,79,73,80,81,71,82,83,,,,,,1.34,0.73,1.13*11
$GPGSV,3,1,11,06,10,039,30,11,19,075,35,12,44,057,41,24,22,129,41*74
$GPGSV,3,2,11,25,74,346,38,28,33,309,40,29,50,187,32,31,08,306,38*77
$GPGSV,3,3,11,32,47,263,40,36,34,141,,49,41,166,37*43
$GLGSV,3,1,09,70,26,239,,71,31,297,37,72,08,340,,73,33,303,30*64
$GLGSV,3,2,09,79,21,081,28,80,59,025,29,81,30,041,10,82,47,104,19*61
$GLGSV,3,3,09,83,24,153,20*54
$GNGLL,4128.96589,N,00416.71212,W,202055.00,A,D*60
$GNRMC,202056.00,A,4128.96587,N,00416.71212,W,0.008,,141023,,,D*79
$GNVTG,,T,,M,0.008,N,0.014,K,D*35
$GNGGA,202056.00,4128.96587,N,00416.71212,W,2,12,0.69,874.9,M,50.2,M,,0000*57
$GNGSA,A,3,24,12,25,32,31,06,29,28,11,,,,1.32,0.69,1.13*16
$GNGSA,A,3,79,73,80,81,71,82,83,,,,,,1.32,0.69,1.13*1C
$GPGSV,3,1,11,06,10,039,30,11,19,075,35,12,44,057,41,24,22,129,41*74
$GPGSV,3,2,11,25,74,346,38,28,33,309,40,29,50,187,32,31,08,306,38*77
$GPGSV,3,3,11,32,47,263,40,36,34,141,,49,41,166,37*43
$GLGSV,3,1,09,70,26,239,,71,31,297,37,72,08,340,,73,33,303,30*64
$GLGSV,3,2,09,79,21,081,27,80,59,025,29,81,30,041,09,82,47,104,19*66
$GLGSV,3,3,09,83,24,153,20*54
$GNGLL,4128.96587,N,00416.71212,W,202056.00,A,D*6D
$GNRMC,202057.00,A,4128.96587,N,00416.71211,W,0.010,,141023,,,D*72
$GNVTG,,T,,M,0.010,N,0.019,K,D*31
$GNGGA,202057.00,4128.96587,N,00416.71211,W,2,12,0.71,874.9,M,50.2,M,,0000*5C
$GNGSA,A,3,24,12,25,32,31,06,29,28,11,,,,1.34,0.71,1.13*19
$GNGSA,A,3,79,73,80,81,71,82,83,,,,,,1.34,0.71,1.13*13
$GPGSV,3,1,11,06,10,039,31,11,19,075,35,12,44,057,41,24,22,129,41*75
$GPGSV,3,2,11,25,74,346,38,28,33,309,39,29,50,187,31,31,08,306,38*7A
$GPGSV,3,3,11,32,47,263,41,36,34,141,,49,41,166,37*42
$GLGSV,3,1,09,70,26,239,,71,31,297,37,72,08,340,,73,33,303,30*64
$GLGSV,3,2,09,79,21,081,26,80,59,025,29,81,30,041,13,82,47,104,20*66
$GLGSV,3,3,09,83,24,153,21*55
$GNGLL,4128.96587,N,00416.71211,W,202057.00,A,D*6F
$GNRMC,202058.00,A,4128.96589,N,00416.71211,W,0.017,,141023,,,D*74
$GNVTG,,T,,M,0.017,N,0.031,K,D*3C
$GNGGA,202058.00,4128.96589,N,00416.71211,W,2,12,0.71,874.8,M,50.2,M,,0000*5C
$GNGSA,A,3,24,12,25,32,31,06,29,28,11,,,,1.34,0.71,1.13*19
$GNGSA,A,3,79,73,80,81,71,82,83,,,,,,1.34,0.71,1.13*13
$GPGSV,3,1,11,06,10,039,31,11,19,075,34,12,44,057,42,24,22,129,40*76
$GPGSV,3,2,11,25,74,346,38,28,33,309,39,29,50,187,32,31,08,306,38*79
$GPGSV,3,3,11,32,47,263,41,36,34,141,,49,41,166,37*42
$GLGSV,3,1,09,70,26,239,,71,31,297,37,72,08,340,,73,33,303,30*64
$GLGSV,3,2,09,79,21,081,26,80,59,025,29,81,30,041,17,82,47,104,21*63
$GLGSV,3,3,09,83,24,153,21*55
$GNGLL,4128.96589,N,00416.71211,W,202058.00,A,D*6E
$GNRMC,202059.00,A,4128.96593,N,00416.71209,W,0.024,,141023,,,D*77
$GNVTG,,T,,M,0.024,N,0.044,K,D*3E
$GNGGA,202059.00,4128.96593,N,00416.71209,W,2,12,0.71,874.8,M,50.2,M,,0000*5F
$GNGSA,A,3,24,12,25,32,31,06,29,28,11,,,,1.34,0.71,1.13*19
$GNGSA,A,3,79,73,80,81,71,82,83,,,,,,1.34,0.71,1.13*13
$GPGSV,3,1,11,06,10,039,31,11,19,075,34,12,44,057,42,24,22,129,41*77
$GPGSV,3,2,11,25,74,346,38,28,33,309,39,29,50,187,33,31,08,306,38*78
$GPGSV,3,3,11,32,47,263,41,36,34,141,,49,41,166,38*4D
$GLGSV,3,1,09,70,25,239,,71,31,297,37,72,08,340,,73,33,303,30*67
$GLGSV,3,2,09,79,21,081,26,80,59,025,29,81,30,041,20,82,47,104,22*64
$GLGSV,3,3,09,83,24,153,21*55
$GNGLL,4128.96593,N,00416.71209,W,202059.00,A,D*6D
$GNRMC,202100.00,A,4128.96598,N,00416.71208,W,0.019,,141023,,,D*7E
$GNVTG,,T,,M,0.019,N,0.036,K,D*35
$GNGGA,202100.00,4128.96598,N,00416.71208,W,2,12,0.71,874.8,M,50.2,M,,0000*58
$GNGSA,A,3,24,12,25,32,31,06,29,28,11,,,,1.34,0.71,1.13*19
$GNGSA,A,3,79,73,80,81,71,82,83,,,,,,1.34,0.71,1.13*13
$GPGSV,3,1,11,06,10,039,30,11,19,075,34,12,44,057,41,24,22,129,41*75
$GPGSV,3,2,11,25,74,346,39,28,33,309,39,29,50,187,32,31,08,306,38*78
$GPGSV,3,3,11,32,47,263,41,36,34,141,,49,41,166,38*4D
$GLGSV,3,1,09,70,25,239,,71,31,297,38,72,08,340,,73,33,303,31*69
$GLGSV,3,2,09,79,21,081,26,80,59,025,29,81,30,041,13,82,47,104,23*65
$GLGSV,3,3,09,83,24,153,21*55
$GNGLL,4128.96598,N,00416.71208,W,202100.00,A,D*6A
$GNRMC,202101.00,A,4128.96599,N,00416.71207,W,0.029,,141023,,,D*72
$GNVTG,,T,,M,0.029,N,0.053,K,D*35
$GNGGA,202101.00,4128.96599,N,00416.71207,W,2,12,0.71,874.7,M,50.2,M,,0000*58
$GNGSA,A,3,24,12,25,32,31,06,29,28,11,,,,1.34,0.71,1.13*19
$GNGSA,A,3,79,73,80,81,71,82,83,,,,,,1.34,0.71,1.13*13
$GPGSV,3,1,11,06,10,039,29,11,19,075,33,12,44,057,39,24,22,129,40*74
$GPGSV,3,2,11,25,74,346,37,28,33,309,38,29,50,187,31,31,08,306,36*7A
$GPGSV,3,3,11,32,47,263,40,36,34,141,,49,41,166,36*42
$GLGSV,3,1,09,70,25,239,,71,31,297,35,72,08,340,,73,33,303,28*6C
$GLGSV,3,2,09,79,21,081,27,80,59,025,29,81,30,041,17,82,47,104,24*67
$GLGSV,3,3,09,83,24,153,23*57
$GNGLL,4128.96599,N,00416.71207,W,202101.00,A,D*65
$GNRMC,202102.00,A,4128.96601,N,00416.71206,W,0.048,,141023,,,D*75
$GNVTG,,T,,M,0.048,N,0.088,K,D*34
$GNGGA,202102.00,4128.96601,N,00416.71206,W,2,12,0.69,874.7,M,50.2,M,,0000*51
$GNGSA,A,3,24,12,25,32,31,06,29,28,11,,,,1.33,0.69,1.13*17
$GNGSA,A,3,79,73,80,81,71,82,83,,,,,,1.33,0.69,1.13*1D
$GPGSV,3,1,11,06,10,039,28,11,19,075,33,12,44,057,40,24,22,129,40*7B
$GPGSV,3,2,11,25,74,346,36,28,33,309,39,29,50,187,31,31,08,306,36*7A
$GPGSV,3,3,11,32,47,263,41,36,34,141,,49,41,166,37*42
$GLGSV,3,1,09,70,25,239,,71,31,297,37,72,08,340,,73,34,303,31*61
$GLGSV,3,2,09,79,21,081,25,80,59,025,29,81,30,041,20,82,47,104,24*61
$GLGSV,3,3,09,83,24,153,22*56
$GNGLL,4128.96601,N,00416.71206,W,202102.00,A,D*65
$GNRMC,202103.00,A,4128.96609,N,00416.71200,W,0.049,,141023,,,D*7B
$GNVTG,,T,,M,0.049,N,0.090,K,D*3C
$GNGGA,202103.00,4128.96609,N,00416.71200,W,2,12,0.69,874.7,M,50.2,M,,0000*5E
$GNGSA,A,3,24,12,25,32,31,06,29,28,11,,,,1.33,0.69,1.13*17
$GNGSA,A,3,79,73,80,81,71,82,83,,,,,,1.33,0.69,1.13*1D
$GPGSV,3,1,11,06,10,039,30,11,19,075,35,12,44,057,42,24,22,129,42*74
$GPGSV,3,2,11,25,74,346,38,28,33,309,40,29,50,187,32,31,08,306,39*76
$GPGSV,3,3,11,32,47,263,42,36,34,141,33,49,41,166,38*4E
$GLGSV,3,1,09,70,25,239,,71,31,297,38,72,08,340,,73,34,303,33*6C
$GLGSV,3,2,09,79,21,081,23,80,59,025,28,81,30,041,22,82,47,104,20*60
$GLGSV,3,3,09,83,24,153,19*5E
$GNGLL,4128.96609,N,00416.71200,W,202103.00,A,D*6A
$GNRMC,202104.00,A,4128.96613,N,00416.71199,W,0.013,,141023,,,D*7B
$GNVTG,,T,,M,0.013,N,0.024,K,D*3C
$GNGGA,202104.00,4128.96613,N,00416.71199,W,2,12,0.69,874.6,M,50.2,M,,0000*50
$GNGSA,A,3,24,12,25,32,31,06,29,28,11,,,,1.33,0.69,1.13*17
$GNGSA,A,3,79,73,80,81,71,82,83,,,,,,1.33,0.69,1.13*1D
$GPGSV,3,1,11,06,10,039,29,11,19,075,34,12,44,057,41,24,22,129,40*7C
$GPGSV,3,2,11,25,74,346,39,28,33,309,40,29,50,187,32,31,08,306,36*78
$GPGSV,3,3,11,32,47,263,41,36,34,141,33,49,41,166,36*43
$GLGSV,3,1,09,70,25,239,,71,31,297,35,72,08,340,,73,34,303,32*60
$GLGSV,3,2,09,79,21,081,23,80,59,025,27,81,30,041,27,82,47,104,21*6B
$GLGSV,3,3,09,83,24,153,21*55
$GNGLL,4128.96613,N,00416.71199,W,202104.00,A,D*65
$GNRMC,202105.00,A,4128.96615,N,00416.71199,W,0.045,,141023,,,D*7F
$GNVTG,,T,,M,0.045,N,0.083,K,D*32
$GNGGA,202105.00,4128.96615,N,00416.71199,W,2,12,0.69,874.6,M,50.2,M,,0000*57
$GNGSA,A,3,24,12,25,32,31,06,29,28,11,,,,1.33,0.69,1.13*17
$GNGSA,A,3,79,73,80,81,71,82,83,,,,,,1.33,0.69,1.13*1D
$GPGSV,3,1,11,06,10,039,31,11,19,075,35,12,44,057,42,24,22,129,40*77
$GPGSV,3,2,11,25,74,346,39,28,33,309,39,29,50,187,31,31,08,306,33*70
$GPGSV,3,3,11,32,47,263,40,36,34,141,32,49,41,166,36*43
$GLGSV,3,1,09,70,25,239,,71,31,297,38,72,08,340,,73,34,303,31*6E
$GLGSV,3,2,09,79,21,081,23,80,59,025,27,81,30,041,29,82,47,104,21*65
$GLGSV,3,3,09,83,24,153,22*56
$GNGLL,4128.96615,N,00416.71199,W,202105.00,A,D*62
$GNRMC,202106.00,A,4128.96615,N,00416.71199,W,0.030,,141023,,,D*7E
$GNVTG,,T,,M,0.030,N,0.056,K,D*38
$GNGGA,202106.00,4128.96615,N,00416.71199,W,2,12,0.69,874.6,M,50.2,M,,0000*54
$GNGSA,A,3,24,12,25,32,31,06,29,28,11,,,,1.33,0.69,1.13*17
$GNGSA,A,3,79,73,80,81,71,82,83,,,,,,1.33,0.69,1.13*1D
$GPGSV,3,1,11,06,10,039,31,11,19,075,34,12,44,057,42,24,22,129,40*76
$GPGSV,3,2,11,25,74,346,36,28,33,309,39,29,50,187,30,31,08,306,36*7B
$GPGSV,3,3,11,32,47,263,38,36,34,141,32,49,41,166,37*4D
$GLGSV,3,1,09,70,25,239,,71,31,297,36,72,08,340,,73,34,303,31*60
$GLGSV,3,2,09,79,21,081,24,80,59,025,28,81,30,041,31,82,47,104,21*64
$GLGSV,3,3,09,83,24,153,22*56
$GNGLL,4128.96615,N,00416.71199,W,202106.00,A,D*61
$GNRMC,202107.00,A,4128.96615,N,00416.71200,W,0.032,,141023,,,D*7E
$GNVTG,,T,,M,0.032,N,0.059,K,D*35
$GNGGA,202107.00,4128.96615,N,00416.71200,W,2,12,0.71,874.6,M,50.2,M,,0000*5F
$GNGSA,A,3,24,12,25,32,31,06,29,28,11,,,,1.34,0.71,1.13*19
$GNGSA,A,3,79,73,80,81,71,82,83,,,,,,1.34,0.71,1.13*13
$GPGSV,3,1,11,06,10,039,31,11,19,075,34,12,44,057,40,24,22,129,40*74
$GPGSV,3,2,11,25,74,346,38,28,33,309,39,29,50,187,30,31,08,306,36*75
$GPGSV,3,3,11,32,47,263,39,36,34,141,33,49,41,166,36*4C
$GLGSV,3,1,09,70,25,239,,71,31,297,37,72,08,340,,73,34,303,32*62
$GLGSV,3,2,09,79,21,081,24,80,59,025,29,81,30,041,29,82,47,104,21*6C
$GLGSV,3,3,09,83,24,153,22*56
$GNGLL,4128.96615,N,00416.71200,W,202107.00,A,D*63
$GNRMC,202108.00,A,4128.96614,N,00416.71204,W,0.030,,141023,,,D*76
$GNVTG,,T,,M,0.030,N,0.056,K,D*38
$GNGGA,202108.00,4128.96614,N,00416.71204,W,2,12,0.71,874.6,M,50.2,M,,0000*55
$GNGSA,A,3,24,12,25,32,31,06,29,28,11,,,,1.34,0.71,1.13*19
$GNGSA,A,3,79,73,80,81,71,82,83,,,,,,1.34,0.71,1.13*13
$GPGSV,3,1,11,06,10,039,31,11,19,075,35,12,44,057,41,24,22,129,40*74
$GPGSV,3,2,11,25,74,346,38,28,33,309,39,29,50,187,30,31,08,306,37*74
$GPGSV,3,3,11,32,47,263,40,36,34,141,33,49,41,166,36*42
$GLGSV,3,1,09,70,25,239,,71,31,297,38,72,08,340,,73,34,303,32*6D
$GLGSV,3,2,09,79,21,082,24,80,59,025,30,81,30,041,28,82,47,104,22*65
$GLGSV,3,3,09,83,24,153,23*57
$GNGLL,4128.96614,N,00416.71204,W,202108.00,A,D*69
$GNRMC,202109.00,A,4128.96616,N,00416.71206,W,0.038,,141023,,,D*7F
$GNVTG,,T,,M,0.038,N,0.071,K,D*35
$GNGGA,202109.00,4128.96616,N,00416.71206,W,2,12,0.71,874.5,M,50.2,M,,0000*57
$GNGSA,A,3,24,12,25,32,31,06,29,28,11,,,,1.34,0.71,1.13*19
$GNGSA,A,3,79,73,80,81,71,82,83,,,,,,1.34,0.71,1.13*13
$GPGSV,3,1,11,06,10,039,31,11,19,075,35,12,44,057,41,24,22,129,40*74
$GPGSV,3,2,11,25,74,346,39,28,33,309,39,29,50,187,30,31,08,306,37*75
$GPGSV,3,3,11,32,47,263,40,36,34,141,33,49,41,166,37*43
$GLGSV,3,1,09,70,25,239,,71,31,297,38,72,08,340,,73,34,303,32*6D
$GLGSV,3,2,09,79,21,082,23,80,59,027,29,81,30,041,28,82,47,104,22*68
$GLGSV,3,3,09,83,24,153,23*57
$GNGLL,4128.96616,N,00416.71206,W,202109.00,A,D*68
$GNRMC,202110.00,A,4128.96618,N,00416.71209,W,0.011,,141023,,,D*7D
$GNVTG,,T,,M,0.011,N,0.021,K,D*3B
$GNGGA,202110.00,4128.96618,N,00416.71209,W,2,12,0.71,874.4,M,50.2,M,,0000*5F
$GNGSA,A,3,24,12,25,32,31,06,29,28,11,,,,1.34,0.71,1.13*19
$GNGSA,A,3,79,73,80,81,71,82,83,,,,,,1.34,0.71,1.13*13
$GPGSV,3,1,11,06,10,039,30,11,19,075,34,12,44,057,41,24,22,129,40*74
$GPGSV,3,2,11,25,74,346,39,28,33,309,39,29,50,187,31,31,08,306,37*74
$GPGSV,3,3,11,32,47,263,41,36,34,141,33,49,41,166,36*43
$GLGSV,3,1,09,70,25,239,,71,31,297,38,72,08,340,,73,34,303,32*6D
$GLGSV,3,2,09,79,21,082,22,80,59,027,29,81,30,040,28,82,47,104,22*68
$GLGSV,3,3,09,83,24,153,23*57
$GNGLL,4128.96618,N,00416.71209,W,202110.00,A,D*61
$GNRMC,202111.00,A,4128.96618,N,00416.71214,W,0.024,,141023,,,D*76
$GNVTG,,T,,M,0.024,N,0.045,K,D*3F
$GNGGA,202111.00,4128.96618,N,00416.71214,W,2,12,0.71,874.2,M,50.2,M,,0000*54
$GNGSA,A,3,24,12,25,32,31,06,29,28,11,,,,1.34,0.71,1.13*19
$GNGSA,A,3,79,73,80,81,71,82,83,,,,,,1.34,0.71,1.13*13
$GPGSV,3,1,11,06,10,039,29,11,19,075,34,12,44,057,41,24,22,129,40*7C
$GPGSV,3,2,11,25,74,346,39,28,33,309,39,29,50,187,31,31,08,306,37*74
$GPGSV,3,3,11,32,47,263,41,36,34,141,33,49,41,166,36*43
$GLGSV,3,1,09,70,25,239,,71,31,297,38,72,08,340,,73,34,303,32*6D
$GLGSV,3,2,09,79,21,082,22,80,59,027,30,81,30,040,29,82,48,103,22*69
$GLGSV,3,3,09,83,24,153,22*56
$GNGLL,4128.96618,N,00416.71214,W,202111.00,A,D*6C
$GNRMC,202112.00,A,4128.96619,N,00416.71218,W,0.010,,141023,,,D*7F
$GNVTG,,T,,M,0.010,N,0.019,K,D*31
$GNGGA,202112.00,4128.96619,N,00416.71218,W,2,12,0.69,874.2,M,50.2,M,,0000*53
$GNGSA,A,3,24,12,25,32,31,06,29,28,11,,,,1.33,0.69,1.13*17
$GNGSA,A,3,79,73,80,81,71,82,83,,,,,,1.33,0.69,1.13*1D
$GPGSV,3,1,11,06,10,039,30,11,19,075,34,12,44,057,41,24,22,129,40*74
$GPGSV,3,2,11,25,74,346,38,28,33,309,39,29,50,187,31,31,08,306,37*75
$GPGSV,3,3,11,32,47,263,41,36,34,141,33,49,41,166,36*43
$GLGSV,3,1,09,70,25,239,,71,31,297,38,72,08,340,,73,34,303,32*6D
$GLGSV,3,2,09,79,21,082,22,80,59,027,30,81,30,040,29,82,48,103,22*69
$GLGSV,3,3,09,83,25,153,22*57
$GNGLL,4128.96619,N,00416.71218,W,202112.00,A,D*62
$GNRMC,202113.00,A,4128.96620,N,00416.71221,W,0.033,,141023,,,D*7F
$GNVTG,,T,,M,0.033,N,0.061,K,D*3F
$GNGGA,202113.00,4128.96620,N,00416.71221,W,2,12,0.69,874.1,M,50.2,M,,0000*51
$GNGSA,A,3,24,12,25,32,31,06,29,28,11,,,,1.33,0.69,1.13*17
$GNGSA,A,3,79,73,80,81,71,82,83,,,,,,1.33,0.69,1.13*1D
$GPGSV,3,1,11,06,10,039,30,11,19,075,34,12,44,057,41,24,22,129,40*74
$GPGSV,3,2,11,25,74,346,38,28,33,309,39,29,50,187,31,31,08,306,37*75
$GPGSV,3,3,11,32,47,263,41,36,34,141,33,49,41,166,37*42
$GLGSV,3,1,09,70,25,239,,71,31,297,38,72,08,340,,73,34,303,32*6D
$GLGSV,3,2,09,79,21,082,21,80,59,027,30,81,30,040,29,82,48,103,22*6A
$GLGSV,3,3,09,83,25,153,22*57
$GNGLL,4128.96620,N,00416.71221,W,202113.00,A,D*63
$GNRMC,202114.00,A,4128.96622,N,00416.71224,W,0.022,,141023,,,D*7F
$GNVTG,,T,,M,0.022,N,0.041,K,D*3D
$GNGGA,202114.00,4128.96622,N,00416.71224,W,2,12,0.69,874.0,M,50.2,M,,0000*50
$GNGSA,A,3,24,12,25,32,31,06,29,28,11,,,,1.33,0.69,1.13*17
$GNGSA,A,3,79,73,80,81,71,82,83,,,,,,1.33,0.69,1.13*1D
$GPGSV,3,1,11,06,10,039,29,11,19,075,34,12,44,057,40,24,22,129,40*7D
$GPGSV,3,2,11,25,74,346,38,28,33,309,39,29,50,187,31,31,08,306,37*75
$GPGSV,3,3,11,32,47,263,41,36,34,141,33,49,41,166,37*42
$GLGSV,3,1,09,70,25,239,,71,31,297,38,72,08,340,,73,34,303,32*6D
$GLGSV,3,2,09,79,21,082,21,80,59,027,30,81,30,040,29,82,48,103,22*6A
$GLGSV,3,3,09,83,25,153,21*54
$GNGLL,4128.96622,N,00416.71224,W,202114.00,A,D*63
$GNRMC,202115.00,A,4128.96628,N,00416.71223,W,0.024,,141023,,,D*75
$GNVTG,,T,,M,0.024,N,0.045,K,D*3F
$GNGGA,202115.00,4128.96628,N,00416.71223,W,2,12,0.69,874.0,M,50.2,M,,0000*5C
$GNGSA,A,3,24,12,25,32,31,06,29,28,11,,,,1.33,0.69,1.13*17
$GNGSA,A,3,79,73,80,81,71,82,83,,,,,,1.33,0.69,1.13*1D
$GPGSV,3,1,11,06,10,039,29,11,19,075,33,12,44,057,40,24,22,129,40*7A
$GPGSV,3,2,11,25,74,346,38,28,33,309,39,29,50,187,31,31,08,306,37*75
$GPGSV,3,3,11,32,47,263,41,36,34,141,33,49,41,166,37*42
$GLGSV,3,1,09,70,25,239,,71,31,297,38,72,08,340,,73,34,303,32*6D
$GLGSV,3,2,09,79,21,082,21,80,59,027,30,81,30,040,29,82,48,103,21*69
$GLGSV,3,3,09,83,25,153,21*54
$GNGLL,4128.96628,N,00416.71223,W,202115.00,A,D*6F
$GNRMC,202116.00,A,4128.96633,N,00416.71221,W,0.016,,141023,,,D*7F
$GNVTG,,T,,M,0.016,N,0.029,K,D*34
$GNGGA,202116.00,4128.96633,N,00416.71221,W,2,12,0.69,874.0,M,50.2,M,,0000*57
$GNGSA,A,3,24,12,25,32,31,06,29,28,11,,,,1.33,0.69,1.13*17
$GNGSA,A,3,79,73,80,81,71,82,83,,,,,,1.33,0.69,1.13*1D
$GPGSV,3,1,11,06,10,039,29,11,19,075,33,12,44,057,40,24,22,129,40*7A
$GPGSV,3,2,11,25,74,346,38,28,33,309,39,29,50,187,31,31,08,306,37*75
$GPGSV,3,3,11,32,47,263,41,36,34,141,33,49,41,166,37*42
$GLGSV,3,1,09,70,25,239,,71,31,297,37,72,08,340,,73,34,303,32*62
$GLGSV,3,2,09,79,21,082,22,80,59,027,30,81,30,040,28,82,48,103,21*6B
$GLGSV,3,3,09,83,25,153,21*54
$GNGLL,4128.96633,N,00416.71221,W,202116.00,A,D*64
$GNRMC,202117.00,A,4128.96639,N,00416.71218,W,0.018,,141023,,,D*70
$GNVTG,,T,,M,0.018,N,0.034,K,D*36
$GNGGA,202117.00,4128.96639,N,00416.71218,W,2,12,0.71,874.0,M,50.2,M,,0000*5F
$GNGSA,A,3,24,12,25,32,31,06,29,28,11,,,,1.34,0.71,1.13*19
$GNGSA,A,3,79,73,80,81,71,82,83,,,,,,1.34,0.71,1.13*13
$GPGSV,3,1,11,06,10,039,29,11,19,075,33,12,44,057,40,24,22,129,40*7A
$GPGSV,3,2,11,25,74,346,38,28,33,309,39,29,50,187,31,31,08,306,37*75
$GPGSV,3,3,11,32,47,263,41,36,34,141,33,49,41,166,37*42
$GLGSV,3,1,09,70,25,239,,71,31,297,37,72,08,340,,73,34,303,32*62
$GLGSV,3,2,09,79,21,082,21,80,59,027,30,81,30,040,28,82,48,103,20*69
$GLGSV,3,3,09,83,25,153,21*54
$GNGLL,4128.96639,N,00416.71218,W,202117.00,A,D*65
$GNRMC,202118.00,A,4128.96645,N,00416.71215,W,0.016,,141023,,,D*77
$GNVTG,,T,,M,0.016,N,0.030,K,D*3C
$GNGGA,202118.00,4128.96645,N,00416.71215,W,2,12,0.71,874.0,M,50.2,M,,0000*56
$GNGSA,A,3,24,12,25,32,31,06,29,28,11,,,,1.34,0.71,1.13*19
$GNGSA,A,3,79,73,80,81,71,82,83,,,,,,1.34,0.71,1.13*13
$GPGSV,3,1,11,06,10,039,29,11,19,075,32,12,44,057,40,24,22,129,40*7B
$GPGSV,3,2,11,25,74,346,38,28,33,309,38,29,50,187,31,31,08,306,37*74
$GPGSV,3,3,11,32,47,263,41,36,34,141,33,49,41,166,37*42
$GLGSV,3,1,09,70,25,239,,71,31,297,37,72,08,340,,73,34,303,32*62
$GLGSV,3,2,09,79,21,082,23,80,59,027,31,81,30,040,27,82,48,103,20*65
$GLGSV,3,3,09,83,25,153,21*54
$GNGLL,4128.96645,N,00416.71215,W,202118.00,A,D*6C
$GNRMC,202119.00,A,4128.96652,N,00416.71212,W,0.035,,141023,,,D*76
$GNVTG,,T,,M,0.035,N,0.065,K,D*3D
$GNGGA,202119.00,4128.96652,N,00416.71212,W,2,12,0.71,874.0,M,50.2,M,,0000*56
$GNGSA,A,3,24,12,25,32,31,06,29,28,11,,,,1.34,0.71,1.13*19
$GNGSA,A,3,79,73,80,81,71,82,83,,,,,,1.34,0.71,1.13*13
$GPGSV,3,1,11,06,10,039,29,11,19,075,33,12,44,057,40,24,22,129,40*7A
$GPGSV,3,2,11,25,74,346,38,28,33,309,39,29,50,187,31,31,08,306,37*75
$GPGSV,3,3,11,32,47,263,41,36,34,141,33,49,41,166,37*42
$GLGSV,3,1,09,70,25,239,,71,31,297,37,72,08,340,,73,34,303,32*62
$GLGSV,3,2,09,79,21,082,23,80,59,027,31,81,30,040,27,82,48,103,20*65
$GLGSV,3,3,09,83,25,153,21*54
$GNGLL,4128.96652,N,00416.71212,W,202119.00,A,D*6C
$GNRMC,202120.00,A,4128.96658,N,00416.71210,W,0.014,,141023,,,D*77
$GNVTG,,T,,M,0.014,N,0.026,K,D*39
$GNGGA,202120.00,4128.96658,N,00416.71210,W,2,12,0.71,874.0,M,50.2,M,,0000*54
$GNGSA,A,3,24,12,25,32,31,06,29,28,11,,,,1.34,0.71,1.13*19
$GNGSA,A,3,79,73,80,81,71,82,83,,,,,,1.34,0.71,1.13*13
$GPGSV,3,1,11,06,10,039,30,11,19,075,33,12,44,057,40,24,22,129,40*72
$GPGSV,3,2,11,25,74,346,38,28,33,309,38,29,50,187,31,31,08,306,37*74
$GPGSV,3,3,11,32,47,263,41,36,34,141,33,49,41,166,37*42
$GLGSV,3,1,09,70,25,239,,71,31,297,37,72,08,340,,73,34,303,32*62
$GLGSV,3,2,09,79,21,082,23,80,59,027,30,81,30,040,27,82,48,103,19*6E
$GLGSV,3,3,09,83,25,153,21*54
$GNGLL,4128.96658,N,00416.71210,W,202120.00,A,D*6E
$GNRMC,202121.00,A,4128.96664,N,00416.71207,W,0.033,,141023,,,D*7A
$GNVTG,,T,,M,0.033,N,0.060,K,D*3E
$GNGGA,202121.00,4128.96664,N,00416.71207,W,2,12,0.71,873.9,M,50.2,M,,0000*52
$GNGSA,A,3,24,12,25,32,31,06,29,28,11,,,,1.34,0.71,1.13*19
$GNGSA,A,3,79,73,80,81,71,82,83,,,,,,1.34,0.71,1.13*13
$GPGSV,3,1,11,06,10,039,30,11,19,075,32,12,44,057,41,24,22,129,40*72
$GPGSV,3,2,11,25,74,346,38,28,33,309,38,29,50,187,31,31,08,306,37*74
$GPGSV,3,3,11,32,47,263,41,36,34,141,33,49,41,166,37*42
$GLGSV,3,1,09,70,25,239,,71,31,297,37,72,08,340,,73,34,303,32*62
$GLGSV,3,2,09,79,21,082,23,80,59,027,30,81,30,040,27,82,48,103,19*6E
$GLGSV,3,3,09,83,25,153,20*55
$GNGLL,4128.96664,N,00416.71207,W,202121.00,A,D*66
$GNRMC,202122.00,A,4128.96669,N,00416.71205,W,0.020,,141023,,,D*74
$GNVTG,,T,,M,0.020,N,0.037,K,D*3E
$GNGGA,202122.00,4128.96669,N,00416.71205,W,2,12,0.69,873.8,M,50.2,M,,0000*56
$GNGSA,A,3,24,12,25,32,31,06,29,28,11,,,,1.33,0.69,1.13*17
$GNGSA,A,3,79,73,80,81,71,82,83,,,,,,1.33,0.69,1.13*1D
$GPGSV,3,1,11,06,10,039,29,11,19,075,33,12,44,057,41,24,22,129,40*7B
$GPGSV,3,2,11,25,74,346,38,28,33,309,38,29,50,187,31,31,08,306,37*74
$GPGSV,3,3,11,32,47,263,41,36,34,141,33,49,41,166,37*42
$GLGSV,3,1,09,70,25,239,,71,31,297,37,72,08,340,,73,34,303,32*62
$GLGSV,3,2,09,79,21,082,23,80,59,027,30,81,30,040,27,82,48,103,19*6E
$GLGSV,3,3,09,83,25,153,19*5F
$GNGLL,4128.96669,N,00416.71205,W,202122.00,A,D*6A
$GNRMC,202123.00,A,4128.96674,N,00416.71203,W,0.028,,141023,,,D*77
$GNVTG,,T,,M,0.028,N,0.053,K,D*34
$GNGGA,202123.00,4128.96674,N,00416.71203,W,2,12,0.69,873.8,M,50.2,M,,0000*5D
$GNGSA,A,3,24,12,25,32,31,06,29,28,11,,,,1.33,0.69,1.13*17
$GNGSA,A,3,79,73,80,81,71,82,83,,,,,,1.33,0.69,1.13*1D
$GPGSV,3,1,11,06,10,039,29,11,19,075,32,12,44,057,41,24,22,129,40*7A
$GPGSV,3,2,11,25,74,346,38,28,33,309,38,29,50,187,30,31,08,306,37*75
$GPGSV,3,3,11,32,47,263,41,36,34,141,33,49,41,166,37*42
$GLGSV,3,1,09,70,25,239,08,71,31,297,37,72,08,340,,73,34,303,32*6A
$GLGSV,3,2,09,79,21,082,22,80,59,027,30,81,30,040,28,82,48,103,19*60
$GLGSV,3,3,09,83,25,153,20*55
$GNGLL,4128.96674,N,00416.71203,W,202123.00,A,D*61
$GNRMC,202124.00,A,4128.96678,N,00416.71201,W,0.017,,141023,,,D*72
$GNVTG,,T,,M,0.017,N,0.032,K,D*3F
$GNGGA,202124.00,4128.96678,N,00416.71201,W,2,12,0.69,873.7,M,50.2,M,,0000*5B
$GNGSA,A,3,24,12,25,32,31,06,29,28,11,,,,1.33,0.69,1.13*17
$GNGSA,A,3,79,73,80,81,71,82,83,,,,,,1.33,0.69,1.13*1D
$GPGSV,3,1,11,06,10,039,29,11,19,075,33,12,44,057,41,24,22,129,40*7B
$GPGSV,3,2,11,25,74,346,38,28,33,309,38,29,50,187,30,31,08,306,37*75
$GPGSV,3,3,11,32,47,263,41,36,34,141,33,49,41,166,37*42
$GLGSV,3,1,09,70,25,239,,71,31,297,37,72,08,340,,73,34,303,32*62
$GLGSV,3,2,09,79,21,082,22,80,59,027,30,81,30,040,28,82,48,103,19*60
$GLGSV,3,3,09,83,25,153,20*55
$GNGLL,4128.96678,N,00416.71201,W,202124.00,A,D*68
$GNRMC,202125.00,A,4128.96679,N,00416.71201,W,0.012,,141023,,,D*77
$GNVTG,,T,,M,0.012,N,0.022,K,D*3B
$GNGGA,202125.00,4128.96679,N,00416.71201,W,2,12,0.69,873.6,M,50.2,M,,0000*5A
$GNGSA,A,3,24,12,25,32,31,06,29,28,11,,,,1.33,0.69,1.13*17
$GNGSA,A,3,79,73,80,81,71,82,83,,,,,,1.33,0.69,1.13*1D
$GPGSV,3,1,11,06,10,039,29,11,19,075,33,12,44,057,41,24,22,129,40*7B
$GPGSV,3,2,11,25,74,346,38,28,33,309,38,29,50,187,31,31,08,306,37*74
$GPGSV,3,3,11,32,47,263,41,36,34,141,33,49,41,166,37*42
$GLGSV,3,1,09,70,25,239,,71,31,297,37,72,08,340,,73,34,303,32*62
$GLGSV,3,2,09,79,21,082,21,80,59,027,30,81,30,040,28,82,48,103,19*63
$GLGSV,3,3,09,83,25,153,20*55
$GNGLL,4128.96679,N,00416.71201,W,202125.00,A,D*68
$GNRMC,202126.00,A,4128.96680,N,00416.71200,W,0.016,,141023,,,D*77
$GNVTG,,T,,M,0.016,N,0.030,K,D*3C
$GNGGA,202126.00,4128.96680,N,00416.71200,W,2,12,0.69,873.5,M,50.2,M,,0000*5D
$GNGSA,A,3,24,12,25,32,31,06,29,28,11,,,,1.33,0.69,1.13*17
$GNGSA,A,3,79,73,80,81,71,82,83,,,,,,1.33,0.69,1.13*1D
$GPGSV,3,1,11,06,10,039,29,11,19,075,33,12,44,057,41,24,22,129,40*7B
$GPGSV,3,2,11,25,74,346,38,28,33,309,38,29,50,187,30,31,08,306,37*75
$GPGSV,3,3,11,32,47,263,41,36,34,141,33,49,41,166,37*42
$GLGSV,3,1,09,70,25,239,18,71,31,297,37,72,08,340,,73,34,303,32*6B
$GLGSV,3,2,09,79,21,082,20,80,59,027,31,81,30,040,29,82,48,103,18*63
$GLGSV,3,3,09,83,25,153,20*55
$GNGLL,4128.96680,N,00416.71200,W,202126.00,A,D*6C
$GNRMC,202127.00,A,4128.96679,N,00416.71202,W,0.007,,141023,,,D*72
$GNVTG,,T,,M,0.007,N,0.014,K,D*3A
$GNGGA,202127.00,4128.96679,N,00416.71202,W,2,12,0.71,873.4,M,50.2,M,,0000*50
$GNGSA,A,3,24,12,25,32,31,06,29,28,11,,,,1.34,0.71,1.13*19
$GNGSA,A,3,79,73,80,81,71,82,83,,,,,,1.34,0.71,1.13*13
$GPGSV,3,1,11,06,10,039,30,11,19,074,33,12,44,057,41,24,22,129,40*72
$GPGSV,3,2,11,25,74,346,38,28,33,309,38,29,50,187,30,31,08,306,37*75
$GPGSV,3,3,11,32,47,263,41,36,34,141,33,49,41,166,37*42
$GLGSV,3,1,09,70,25,239,19,71,31,297,37,72,08,340,,73,34,303,32*6A
$GLGSV,3,2,09,79,21,082,20,80,59,027,31,81,30,040,29,82,48,103,18*63
$GLGSV,3,3,09,83,25,153,20*55
$GNGLL,4128.96679,N,00416.71202,W,202127.00,A,D*69
$GNRMC,202128.00,A,4128.96678,N,00416.71203,W,0.010,,141023,,,D*7B
$GNVTG,,T,,M,0.010,N,0.018,K,D*30
$GNGGA,202128.00,4128.96678,N,00416.71203,W,2,12,0.71,873.3,M,50.2,M,,0000*58
$GNGSA,A,3,24,12,25,32,31,06,29,28,11,,,,1.34,0.71,1.13*19
$GNGSA,A,3,79,73,80,81,71,82,83,,,,,,1.34,0.71,1.13*13
$GPGSV,3,1,11,06,10,039,29,11,19,074,33,12,44,058,41,24,22,129,40*75
$GPGSV,3,2,11,25,74,346,38,28,33,309,38,29,50,187,30,31,08,306,37*75
$GPGSV,3,3,11,32,47,263,41,36,34,141,33,49,41,166,37*42
$GLGSV,3,1,09,70,25,239,18,71,31,297,37,72,08,340,,73,34,303,33*6A
$GLGSV,3,2,09,79,21,082,21,80,59,027,31,81,30,040,30,82,48,103,17*65
$GLGSV,3,3,09,83,25,153,20*55
$GNGLL,4128.96678,N,00416.71203,W,202128.00,A,D*66
$GNRMC,202129.00,A,4128.96679,N,00416.71203,W,0.028,,141023,,,D*70
$GNVTG,,T,,M,0.028,N,0.052,K,D*35
$GNGGA,202129.00,4128.96679,N,00416.71203,W,2,12,0.71,873.2,M,50.2,M,,0000*59
$GNGSA,A,3,24,12,25,32,31,06,29,28,11,,,,1.34,0.71,1.13*19
$GNGSA,A,3,79,73,80,81,70,71,82,83,,,,,1.34,0.71,1.13*14
$GPGSV,3,1,11,06,10,039,29,11,19,074,33,12,44,058,41,24,22,129,40*75
$GPGSV,3,2,11,25,74,346,38,28,33,309,38,29,50,187,30,31,08,306,37*75
$GPGSV,3,3,11,32,47,263,41,36,34,141,33,49,41,166,37*42
$GLGSV,3,1,09,70,25,239,18,71,31,297,37,72,08,340,,73,34,303,32*6B
$GLGSV,3,2,09,79,21,082,19,80,59,027,31,81,30,040,30,82,48,103,17*6E
$GLGSV,3,3,09,83,25,153,20*55
$GNGLL,4128.96679,N,00416.71203,W,202129.00,A,D*66
$GNRMC,202130.00,A,4128.96681,N,00416.71202,W,0.047,,141023,,,D*77
$GNVTG,,T,,M,0.047,N,0.088,K,D*3B
$GNGGA,202130.00,4128.96681,N,00416.71202,W,2,12,0.71,873.1,M,50.2,M,,0000*54
$GNGSA,A,3,24,12,25,32,31,06,29,28,11,,,,1.34,0.71,1.13*19
$GNGSA,A,3,79,73,80,81,70,71,82,83,,,,,1.34,0.71,1.13*14
$GPGSV,3,1,11,06,10,039,29,11,19,074,33,12,44,058,41,24,22,129,40*75
$GPGSV,3,2,11,25,74,346,38,28,33,309,38,29,50,187,30,31,08,306,37*75
$GPGSV,3,3,11,32,47,263,41,36,34,141,33,49,41,166,37*42
$GLGSV,3,1,09,70,25,239,18,71,31,297,37,72,08,340,,73,34,303,32*6B
$GLGSV,3,2,09,79,21,082,19,80,59,027,32,81,30,040,30,82,48,103,16*6C
$GLGSV,3,3,09,83,25,153,20*55
$GNGLL,4128.96681,N,00416.71202,W,202130.00,A,D*68
$GNRMC,202131.00,A,4128.96684,N,00416.71198,W,0.030,,141023,,,D*73
$GNVTG,,T,,M,0.030,N,0.056,K,D*38
$GNGGA,202131.00,4128.96684,N,00416.71198,W,2,12,0.71,873.0,M,50.2,M,,0000*51
$GNGSA,A,3,24,12,25,32,31,06,29,28,11,,,,1.34,0.71,1.13*19
$GNGSA,A,3,79,73,80,81,70,71,82,83,,,,,1.34,0.71,1.13*14
$GPGSV,3,1,11,06,10,039,29,11,19,074,33,12,44,058,41,24,22,129,40*75
$GPGSV,3,2,11,25,74,346,38,28,33,309,38,29,50,187,30,31,08,306,37*75
$GPGSV,3,3,11,32,47,263,41,36,34,141,33,49,41,166,37*42
$GLGSV,3,1,09,70,25,239,19,71,31,297,37,72,08,340,,73,34,303,32*6A
$GLGSV,3,2,09,79,21,082,19,80,59,027,32,81,30,040,30,82,48,103,15*6F
$GLGSV,3,3,09,83,25,153,21*54
$GNGLL,4128.96684,N,00416.71198,W,202131.00,A,D*6C
$GNRMC,202132.00,A,4128.96687,N,00416.71194,W,0.015,,141023,,,D*78
$GNVTG,,T,,M,0.015,N,0.028,K,D*36
$GNGGA,202132.00,4128.96687,N,00416.71194,W,2,12,0.69,872.8,M,50.2,M,,0000*5D
$GNGSA,A,3,24,12,25,32,31,06,29,28,11,,,,1.33,0.69,1.13*17
$GNGSA,A,3,79,73,80,81,70,71,82,83,,,,,1.33,0.69,1.13*1A
$GPGSV,3,1,11,06,10,039,28,11,19,074,33,12,44,058,41,24,22,129,40*74
$GPGSV,3,2,11,25,74,346,38,28,33,309,38,29,50,187,31,31,08,306,37*74
$GPGSV,3,3,11,32,47,263,41,36,34,141,33,49,41,166,37*42
$GLGSV,3,1,09,70,25,239,19,71,31,297,37,72,08,340,,73,34,303,32*6A
$GLGSV,3,2,09,79,21,082,20,80,59,027,31,81,30,040,31,82,48,103,15*67
$GLGSV,3,3,09,83,25,153,20*55
$GNGLL,4128.96687,N,00416.71194,W,202132.00,A,D*60
$GNRMC,202133.00,A,4128.96688,N,00416.71193,W,0.006,,141023,,,D*73
$GNVTG,,T,,M,0.006,N,0.010,K,D*3F
$GNGGA,202133.00,4128.96688,N,00416.71193,W,2,12,0.69,872.7,M,50.2,M,,0000*5B
$GNGSA,A,3,24,12,25,32,31,06,29,28,11,,,,1.33,0.69,1.13*17
$GNGSA,A,3,79,73,80,81,70,71,82,83,,,,,1.33,0.69,1.13*1A
$GPGSV,3,1,11,06,10,039,29,11,19,074,33,12,44,058,40,24,22,129,40*74
$GPGSV,3,2,11,25,74,346,38,28,33,309,38,29,50,187,31,31,08,306,37*74
$GPGSV,3,3,11,32,47,263,41,36,34,141,33,49,41,166,37*42
$GLGSV,3,1,09,70,25,239,18,71,31,297,37,72,08,340,,73,34,303,32*6B
$GLGSV,3,2,09,79,21,082,20,80,59,027,31,81,30,040,31,82,48,103,13*61
$GLGSV,3,3,09,83,25,153,21*54
$GNGLL,4128.96688,N,00416.71193,W,202133.00,A,D*69
$GNRMC,202134.00,A,4128.96689,N,00416.71192,W,0.028,,141023,,,D*78
$GNVTG,,T,,M,0.028,N,0.051,K,D*36
$GNGGA,202134.00,4128.96689,N,00416.71192,W,2,12,0.69,872.6,M,50.2,M,,0000*5D
$GNGSA,A,3,24,12,25,32,31,06,29,28,11,,,,1.33,0.69,1.13*17
$GNGSA,A,3,79,73,80,81,70,71,82,83,,,,,1.33,0.69,1.13*1A
$GPGSV,3,1,11,06,10,039,29,11,19,074,33,12,44,058,41,24,22,129,40*75
$GPGSV,3,2,11,25,74,346,38,28,33,309,38,29,50,187,31,31,08,306,37*74
$GPGSV,3,3,11,32,47,263,41,36,34,141,33,49,41,166,37*42
$GLGSV,3,1,09,70,25,239,18,71,31,297,37,72,08,340,,73,34,303,32*6B
$GLGSV,3,2,09,79,21,082,20,80,59,027,31,81,30,040,31,82,48,103,11*63
$GLGSV,3,3,09,83,25,153,20*55
$GNGLL,4128.96689,N,00416.71192,W,202134.00,A,D*6E
$GNRMC,202135.00,A,4128.96691,N,00416.71193,W,0.019,,141023,,,D*73
$GNVTG,,T,,M,0.019,N,0.034,K,D*37
$GNGGA,202135.00,4128.96691,N,00416.71193,W,2,12,0.70,872.5,M,50.2,M,,0000*5F
$GNGSA,A,3,24,12,25,32,31,06,29,28,11,,,,1.36,0.70,1.17*1E
$GNGSA,A,3,79,73,80,81,70,71,83,,,,,,1.36,0.70,1.17*19
$GPGSV,3,1,11,06,10,039,29,11,19,074,33,12,44,058,40,24,22,129,40*74
$GPGSV,3,2,11,25,74,346,38,28,33,309,38,29,50,187,30,31,08,306,37*75
$GPGSV,3,3,11,32,47,263,41,36,34,141,33,49,41,166,37*42
$GLGSV,3,1,09,70,25,239,18,71,31,297,37,72,08,340,,73,34,303,32*6B
$GLGSV,3,2,09,79,21,082,19,80,59,027,32,81,30,040,31,82,48,103,08*62
$GLGSV,3,3,09,83,25,153,20*55
$GNGLL,4128.96691,N,00416.71193,W,202135.00,A,D*67
$GNRMC,202136.00,A,4128.96693,N,00416.71190,W,0.014,,141023,,,D*7C
$GNVTG,,T,,M,0.014,N,0.026,K,D*39
$GNGGA,202136.00,4128.96693,N,00416.71190,W,2,12,0.70,872.5,M,50.2,M,,0000*5D
$GNGSA,A,3,24,12,25,32,31,06,29,28,11,,,,1.36,0.70,1.17*1E
$GNGSA,A,3,79,73,80,81,70,71,82,83,,,,,1.36,0.70,1.17*13
$GPGSV,3,1,11,06,10,039,29,11,19,074,33,12,44,058,40,24,22,129,40*74
$GPGSV,3,2,11,25,74,346,38,28,33,309,38,29,50,187,30,31,08,306,37*75
$GPGSV,3,3,11,32,47,263,41,36,34,141,33,49,41,166,37*42
$GLGSV,3,1,09,70,25,239,18,71,31,297,36,72,08,340,,73,34,303,32*6A
$GLGSV,3,2,09,79,21,082,18,80,59,027,31,81,30,040,31,82,48,103,11*68
$GLGSV,3,3,09,83,25,153,20*55
$GNGLL,4128.96693,N,00416.71190,W,202136.00,A,D*65
$GNRMC,202137.00,A,4128.96698,N,00416.71189,W,0.039,,141023,,,D*71
$GNVTG,,T,,M,0.039,N,0.073,K,D*36
$GNGGA,202137.00,4128.96698,N,00416.71189,W,2,12,0.72,872.5,M,50.2,M,,0000*5D
$GNGSA,A,3,24,12,25,32,31,06,29,28,11,,,,1.38,0.72,1.17*12
$GNGSA,A,3,79,73,80,81,70,71,82,83,,,,,1.38,0.72,1.17*1F
$GPGSV,3,1,11,06,10,039,29,11,19,074,33,12,44,058,40,24,22,129,40*74
$GPGSV,3,2,11,25,74,346,38,28,33,309,38,29,50,187,31,31,08,306,37*74
$GPGSV,3,3,11,32,47,263,41,36,34,141,33,49,41,166,37*42
$GLGSV,3,1,09,70,25,239,17,71,31,297,37,72,08,340,,73,34,303,32*64
$GLGSV,3,2,09,79,21,082,18,80,59,027,31,81,30,040,31,82,48,103,11*68
$GLGSV,3,3,09,83,25,153,21*54
$GNGLL,4128.96698,N,00416.71189,W,202137.00,A,D*67
$GNRMC,202138.00,A,4128.96702,N,00416.71186,W,0.044,,141023,,,D*79
$GNVTG,,T,,M,0.044,N,0.081,K,D*31
$GNGGA,202138.00,4128.96702,N,00416.71186,W,2,12,0.70,872.4,M,50.2,M,,0000*5C
$GNGSA,A,3,24,12,25,32,31,06,29,28,11,,,,1.36,0.70,1.17*1E
$GNGSA,A,3,79,73,80,81,70,71,83,,,,,,1.36,0.70,1.17*19
$GPGSV,3,1,11,06,10,039,30,11,19,074,32,12,44,058,40,24,22,129,40*7D
$GPGSV,3,2,11,25,74,346,38,28,33,309,38,29,50,187,31,31,08,306,37*74
$GPGSV,3,3,11,32,47,263,41,36,34,141,33,49,41,166,37*42
$GLGSV,3,1,09,70,25,239,17,71,31,297,37,72,08,340,,73,34,303,32*64
$GLGSV,3,2,09,79,21,082,18,80,59,027,31,81,30,040,31,82,48,103,02*6A
$GLGSV,3,3,09,83,25,153,21*54
$GNGLL,4128.96702,N,00416.71186,W,202138.00,A,D*65
$GNRMC,202139.00,A,4128.96703,N,00416.71186,W,0.004,,141023,,,D*7D
$GNVTG,,T,,M,0.004,N,0.008,K,D*34
$GNGGA,202139.00,4128.96703,N,00416.71186,W,2,12,0.70,872.3,M,50.2,M,,0000*5B
$GNGSA,A,3,24,12,25,32,31,06,29,28,11,,,,1.36,0.70,1.17*1E
$GNGSA,A,3,79,73,80,81,70,71,83,,,,,,1.36,0.70,1.17*19
$GPGSV,3,1,11,06,10,039,30,11,19,074,32,12,44,058,41,24,22,129,40*7C
$GPGSV,3,2,11,25,74,346,38,28,33,309,38,29,50,187,31,31,08,306,37*74
$GPGSV,3,3,11,32,47,263,41,36,34,141,33,49,41,166,37*42
$GLGSV,3,1,09,70,25,239,18,71,31,297,37,72,08,340,,73,34,303,32*6B
$GLGSV,3,2,09,79,21,082,20,80,59,027,31,81,30,040,32,82,48,103,06*66
$GLGSV,3,3,09,83,25,153,21*54
$GNGLL,4128.96703,N,00416.71186,W,202139.00,A,D*65
$GNRMC,202140.00,A,4128.96702,N,00416.71187,W,0.047,,141023,,,D*74
$GNVTG,,T,,M,0.047,N,0.087,K,D*34
$GNGGA,202140.00,4128.96702,N,00416.71187,W,2,12,0.65,872.2,M,50.2,M,,0000*50
$GNGSA,A,3,24,12,25,32,31,06,29,28,11,,,,1.31,0.65,1.13*19
$GNGSA,A,3,79,73,80,81,70,71,83,,,,,,1.31,0.65,1.13*1E
$GPGSV,3,1,11,06,10,039,31,11,19,074,32,12,44,058,40,24,22,129,40*7C
$GPGSV,3,2,11,25,74,346,38,28,33,309,38,29,50,187,30,31,08,306,37*75
$GPGSV,3,3,11,32,47,263,41,36,34,141,33,49,41,166,37*42
$GLGSV,3,1,09,70,25,239,18,71,31,297,36,72,08,340,,73,34,303,32*6A
$GLGSV,3,2,09,79,21,082,20,80,59,027,31,81,30,040,32,82,48,103,10*61
$GLGSV,3,3,09,83,25,153,21*54
$GNGLL,4128.96702,N,00416.71187,W,202140.00,A,D*6B
$GNRMC,202141.00,A,4128.96701,N,00416.71186,W,0.018,,141023,,,D*7D
$GNVTG,,T,,M,0.018,N,0.033,K,D*31
$GNGGA,202141.00,4128.96701,N,00416.71186,W,2,12,0.70,872.1,M,50.2,M,,0000*54
$GNGSA,A,3,24,12,25,32,31,06,29,28,11,,,,1.36,0.70,1.17*1E
$GNGSA,A,3,79,73,80,81,70,71,82,83,,,,,1.36,0.70,1.17*13
$GPGSV,3,1,11,06,10,039,30,11,19,074,32,12,44,058,40,24,22,129,40*7D
$GPGSV,3,2,11,25,74,348,38,28,33,309,38,29,50,187,31,31,08,306,37*7A
$GPGSV,3,3,11,32,47,263,41,36,34,141,33,49,41,166,37*42
$GLGSV,3,1,09,70,25,239,19,71,31,297,36,72,08,340,,73,34,303,32*6B
$GLGSV,3,2,09,79,21,082,21,80,59,027,31,81,30,040,32,82,48,103,14*64
$GLGSV,3,3,09,83,25,153,21*54
$GNGLL,4128.96701,N,00416.71186,W,202141.00,A,D*68
$GNRMC,202142.00,A,4128.96699,N,00416.71186,W,0.031,,141023,,,D*75
$GNVTG,,T,,M,0.031,N,0.057,K,D*38
$GNGGA,202142.00,4128.96699,N,00416.71186,W,2,12,0.70,872.0,M,50.2,M,,0000*56
$GNGSA,A,3,24,12,25,32,31,06,29,28,11,,,,1.36,0.70,1.17*1E
$GNGSA,A,3,79,73,80,81,70,71,82,83,,,,,1.36,0.70,1.17*13
$GPGSV,3,1,11,06,10,039,30,11,19,074,33,12,44,058,40,24,22,129,40*7C
$GPGSV,3,2,11,25,74,348,38,28,33,309,38,29,50,187,31,31,08,306,37*7A
$GPGSV,3,3,11,32,47,263,41,36,34,141,33,49,41,166,37*42
$GLGSV,3,1,09,70,25,239,18,71,31,297,36,72,08,340,,73,34,303,32*6A
$GLGSV,3,2,09,79,21,082,20,80,59,027,32,81,30,040,32,82,48,103,14*66
$GLGSV,3,3,09,83,25,153,21*54
$GNGLL,4128.96699,N,00416.71186,W,202142.00,A,D*6B
$GNRMC,202143.00,A,4128.96699,N,00416.71186,W,0.008,,141023,,,D*7E
$GNVTG,,T,,M,0.008,N,0.015,K,D*34
$GNGGA,202143.00,4128.96699,N,00416.71186,W,2,12,0.72,871.9,M,50.2,M,,0000*5F
$GNGSA,A,3,24,12,25,32,31,06,29,28,11,,,,1.38,0.72,1.17*12
$GNGSA,A,3,79,73,80,81,70,71,82,83,,,,,1.38,0.72,1.17*1F
$GPGSV,3,1,11,06,10,039,30,11,19,074,33,12,44,058,40,24,22,129,40*7C
$GPGSV,3,2,11,25,74,348,38,28,33,309,38,29,50,187,31,31,08,306,37*7A
$GPGSV,3,3,11,32,47,263,41,36,34,141,33,49,41,166,37*42
$GLGSV,3,1,09,70,25,239,18,71,31,297,36,72,08,340,,73,34,303,32*6A
$GLGSV,3,2,09,79,21,082,20,80,59,027,31,81,30,040,32,82,48,103,15*64
$GLGSV,3,3,09,83,25,153,20*55
$GNGLL,4128.96699,N,00416.71186,W,202143.00,A,D*6A
$GNRMC,202144.00,A,4128.96700,N,00416.71184,W,0.023,,141023,,,D*73
$GNVTG,,T,,M,0.023,N,0.043,K,D*3E
$GNGGA,202144.00,4128.96700,N,00416.71184,W,2,12,0.69,871.7,M,50.2,M,,0000*5F
$GNGSA,A,3,24,12,25,32,31,06,29,28,11,,,,1.33,0.69,1.13*17
$GNGSA,A,3,79,73,80,81,70,71,82,83,,,,,1.33,0.69,1.13*1A
$GPGSV,3,1,11,06,10,039,31,11,19,074,32,12,44,058,40,24,22,129,40*7C
$GPGSV,3,2,11,25,74,348,38,28,34,309,38,29,50,187,31,31,08,306,37*7D
$GPGSV,3,3,11,32,47,263,41,36,34,141,33,49,41,166,37*42
$GLGSV,3,1,09,70,25,239,19,71,31,297,36,72,08,340,,73,34,303,31*68
$GLGSV,3,2,09,79,21,082,19,80,59,027,31,81,30,040,32,82,48,103,15*6E
$GLGSV,3,3,09,83,25,153,21*54
$GNGLL,4128.96700,N,00416.71184,W,202144.00,A,D*6E
$GNRMC,202145.00,A,4128.96703,N,00416.71181,W,0.060,,141023,,,D*73
$GNVTG,,T,,M,0.060,N,0.111,K,D*3F
$GNGGA,202145.00,4128.96703,N,00416.71181,W,2,12,0.64,871.7,M,50.2,M,,0000*55
$GNGSA,A,3,24,12,25,32,31,06,29,28,11,,,,1.27,0.64,1.10*1C
$GNGSA,A,3,79,73,80,81,70,71,82,83,,,,,1.27,0.64,1.10*11
$GPGSV,3,1,11,06,10,039,30,11,19,074,32,12,44,058,40,24,22,129,40*7D
$GPGSV,3,2,11,25,74,348,38,28,34,309,38,29,50,187,31,31,08,306,37*7D
$GPGSV,3,3,11,32,47,263,41,36,34,141,33,49,41,166,37*42
$GLGSV,3,1,09,70,25,239,19,71,31,297,36,72,08,340,,73,34,303,32*6B
$GLGSV,3,2,09,79,21,082,18,80,59,027,32,81,30,040,33,82,48,103,15*6D
$GLGSV,3,3,09,83,25,153,21*54
$GNGLL,4128.96703,N,00416.71181,W,202145.00,A,D*69
$GNRMC,202146.00,A,4128.96704,N,00416.71180,W,0.032,,141023,,,D*71
$GNVTG,,T,,M,0.032,N,0.060,K,D*3F
$GNGGA,202146.00,4128.96704,N,00416.71180,W,2,12,0.64,871.6,M,50.2,M,,0000*51
$GNGSA,A,3,24,12,25,32,31,06,29,28,11,,,,1.27,0.64,1.10*1C
$GNGSA,A,3,79,73,80,81,70,71,82,83,,,,,1.27,0.64,1.10*11
$GPGSV,3,1,11,06,10,039,31,11,19,074,32,12,44,058,40,24,22,129,40*7C
$GPGSV,3,2,11,25,74,348,38,28,34,309,38,29,50,187,31,31,08,306,37*7D
$GPGSV,3,3,11,32,47,263,41,36,34,141,33,49,41,166,37*42
$GLGSV,3,1,09,70,25,239,19,71,31,297,36,72,08,340,,73,34,303,32*6B
$GLGSV,3,2,09,79,21,082,19,80,59,027,32,81,30,040,33,82,48,103,15*6C
$GLGSV,3,3,09,83,25,153,21*54
$GNGLL,4128.96704,N,00416.71180,W,202146.00,A,D*6C
$GNRMC,202147.00,A,4128.96701,N,00416.71179,W,0.016,,141023,,,D*75
$GNVTG,,T,,M,0.016,N,0.030,K,D*3C
$GNGGA,202147.00,4128.96701,N,00416.71179,W,2,12,0.64,871.5,M,50.2,M,,0000*50
$GNGSA,A,3,24,12,25,32,31,06,29,28,11,,,,1.27,0.64,1.10*1C
$GNGSA,A,3,79,73,80,81,70,71,82,83,,,,,1.27,0.64,1.10*11
$GPGSV,3,1,11,06,10,039,30,11,19,074,32,12,44,058,40,24,22,129,40*7D
$GPGSV,3,2,11,25,74,348,38,28,34,309,38,29,50,187,32,31,09,306,38*70
$GPGSV,3,3,11,32,47,263,41,36,34,141,33,49,41,166,37*42
$GLGSV,3,1,09,70,25,239,19,71,31,297,36,72,08,340,,73,34,303,32*6B
$GLGSV,3,2,09,79,21,082,19,80,59,027,32,81,30,040,33,82,48,103,16*6F
$GLGSV,3,3,09,83,25,153,21*54
$GNGLL,4128.96701,N,00416.71179,W,202147.00,A,D*6E
$GNRMC,202148.00,A,4128.96699,N,00416.71179,W,0.011,,141023,,,D*7D
$GNVTG,,T,,M,0.011,N,0.020,K,D*3A
$GNGGA,202148.00,4128.96699,N,00416.71179,W,2,12,0.64,871.6,M,50.2,M,,0000*5C
$GNGSA,A,3,24,12,25,32,31,06,29,28,11,,,,1.27,0.64,1.10*1C
$GNGSA,A,3,79,73,80,81,70,71,82,83,,,,,1.27,0.64,1.10*11
$GPGSV,3,1,11,06,10,039,30,11,19,074,32,12,44,058,40,24,22,129,40*7D
$GPGSV,3,2,11,25,74,348,38,28,34,309,38,29,50,187,31,31,09,306,38*73
$GPGSV,3,3,11,32,47,262,41,36,34,141,33,49,41,166,37*43
$GLGSV,3,1,09,70,25,239,18,71,31,297,36,72,08,340,,73,34,303,32*6A
$GLGSV,3,2,09,79,21,082,18,80,59,027,32,81,30,040,33,82,48,103,16*6E
$GLGSV,3,3,09,83,25,153,21*54
$GNGLL,4128.96699,N,00416.71179,W,202148.00,A,D*61
$GNRMC,202149.00,A,4128.96699,N,00416.71178,W,0.001,,141023,,,D*7C
$GNVTG,,T,,M,0.001,N,0.002,K,D*3B
$GNGGA,202149.00,4128.96699,N,00416.71178,W,2,12,0.65,871.6,M,50.2,M,,0000*5D
$GNGSA,A,3,24,12,25,32,31,06,29,28,11,,,,1.28,0.65,1.10*12
$GNGSA,A,3,79,73,80,81,70,71,82,83,,,,,1.28,0.65,1.10*1F
$GPGSV,3,1,11,06,10,039,30,11,19,074,32,12,44,058,40,24,22,129,40*7D
$GPGSV,3,2,11,25,74,348,38,28,34,309,38,29,50,187,31,31,09,306,38*73
$GPGSV,3,3,11,32,47,262,41,36,34,141,33,49,41,166,37*43
$GLGSV,3,1,09,70,25,239,18,71,31,297,36,72,08,340,,73,34,303,32*6A
$GLGSV,3,2,09,79,21,082,17,80,59,027,32,81,30,040,33,82,48,103,16*61
$GLGSV,3,3,09,83,25,153,22*57
$GNGLL,4128.96699,N,00416.71178,W,202149.00,A,D*61
$GNRMC,202150.00,A,4128.96700,N,00416.71177,W,0.011,,141023,,,D*7B
$GNVTG,,T,,M,0.011,N,0.019,K,D*30
$GNGGA,202150.00,4128.96700,N,00416.71177,W,2,12,0.64,871.5,M,50.2,M,,0000*59
$GNGSA,A,3,24,12,25,32,31,06,29,28,11,,,,1.27,0.64,1.10*1C
$GNGSA,A,3,79,73,80,81,70,71,82,83,,,,,1.27,0.64,1.10*11
$GPGSV,3,1,11,06,10,039,31,11,19,074,33,12,44,058,40,24,22,129,40*7D
$GPGSV,3,2,11,25,74,348,39,28,34,309,38,29,50,187,32,31,09,306,38*71
$GPGSV,3,3,11,32,47,262,41,36,34,141,33,49,41,166,37*43
$GLGSV,3,1,09,70,25,239,17,71,31,297,36,72,08,340,,73,34,303,33*64
$GLGSV,3,2,09,79,21,082,17,80,59,027,32,81,30,040,32,82,48,103,15*63
$GLGSV,3,3,09,83,25,153,22*57
$GNGLL,4128.96700,N,00416.71177,W,202150.00,A,D*67
$GNRMC,202151.00,A,4128.96701,N,00416.71175,W,0.019,,141023,,,D*71
$GNVTG,,T,,M,0.019,N,0.035,K,D*36
$GNGGA,202151.00,4128.96701,N,00416.71175,W,2,12,0.64,871.5,M,50.2,M,,0000*5B
$GNGSA,A,3,24,12,25,32,31,06,29,28,11,,,,1.27,0.64,1.10*1C
$GNGSA,A,3,79,73,80,81,70,71,82,83,,,,,1.27,0.64,1.10*11
$GPGSV,3,1,11,06,10,039,31,11,19,074,32,12,44,058,40,24,22,129,40*7C
$GPGSV,3,2,11,25,74,348,38,28,34,309,38,29,50,187,32,31,09,306,38*70
$GPGSV,3,3,11,32,47,262,41,36,34,141,33,49,41,166,37*43
$GLGSV,3,1,09,70,25,239,17,71,31,297,35,72,08,340,,73,34,303,32*66
$GLGSV,3,2,09,79,21,082,17,80,59,027,32,81,30,040,32,82,48,103,16*60
$GLGSV,3,3,09,83,25,153,22*57
$GNGLL,4128.96701,N,00416.71175,W,202151.00,A,D*65
$GNRMC,202152.00,A,4128.96704,N,00416.71172,W,0.014,,141023,,,D*7D
$GNVTG,,T,,M,0.014,N,0.027,K,D*38
$GNGGA,202152.00,4128.96704,N,00416.71172,W,2,12,0.64,871.6,M,50.2,M,,0000*59
$GNGSA,A,3,24,12,25,32,31,06,29,28,11,,,,1.27,0.64,1.10*1C
$GNGSA,A,3,79,73,80,81,70,71,82,83,,,,,1.27,0.64,1.10*11
$GPGSV,3,1,11,06,10,039,31,11,19,074,32,12,44,058,40,24,22,129,40*7C
$GPGSV,3,2,11,25,74,348,38,28,34,309,38,29,50,187,32,31,09,306,38*70
$GPGSV,3,3,11,32,47,262,40,36,34,141,33,49,41,166,37*42
$GLGSV,3,1,09,70,25,239,17,71,31,297,35,72,08,340,,73,34,303,32*66
$GLGSV,3,2,09,79,21,082,17,80,59,027,32,81,30,040,32,82,48,103,15*63
$GLGSV,3,3,09,83,25,153,22*57
$GNGLL,4128.96704,N,00416.71172,W,202152.00,A,D*64
$GNRMC,202153.00,A,4128.96705,N,00416.71170,W,0.013,,141023,,,D*78
$GNVTG,,T,,M,0.013,N,0.024,K,D*3C
$GNGGA,202153.00,4128.96705,N,00416.71170,W,2,12,0.64,871.6,M,50.2,M,,0000*5B
$GNGSA,A,3,24,12,25,32,31,06,29,28,11,,,,1.27,0.64,1.10*1C
$GNGSA,A,3,79,73,80,81,70,71,82,83,,,,,1.27,0.64,1.10*11
$GPGSV,3,1,11,06,10,039,31,11,19,074,32,12,44,058,40,24,22,129,40*7C
$GPGSV,3,2,11,25,74,348,38,28,34,309,38,29,50,187,32,31,09,306,37*7F
$GPGSV,3,3,11,32,47,262,40,36,34,141,34,49,41,166,37*45
$GLGSV,3,1,09,70,25,239,16,71,31,297,35,72,08,340,,73,34,303,32*67
$GLGSV,3,2,09,79,21,082,17,80,59,027,33,81,30,040,32,82,48,103,17*60
$GLGSV,3,3,09,83,25,153,22*57
$GNGLL,4128.96705,N,00416.71170,W,202153.00,A,D*66
$GNRMC,202154.00,A,4128.96706,N,00416.71168,W,0.015,,141023,,,D*73
$GNVTG,,T,,M,0.015,N,0.028,K,D*36
$GNGGA,202154.00,4128.96706,N,00416.71168,W,2,12,0.64,871.6,M,50.2,M,,0000*56
$GNGSA,A,3,24,12,25,32,31,06,29,28,11,,,,1.27,0.64,1.10*1C
$GNGSA,A,3,79,73,80,81,70,71,82,83,,,,,1.27,0.64,1.10*11
$GPGSV,3,1,11,06,10,039,31,11,19,074,32,12,44,058,40,24,22,129,40*7C
$GPGSV,3,2,11,25,74,348,38,28,34,309,38,29,50,187,32,31,09,306,37*7F
$GPGSV,3,3,11,32,47,262,41,36,34,141,33,49,41,166,37*43
$GLGSV,3,1,09,70,25,239,14,71,31,297,35,72,08,340,,73,34,303,32*65
$GLGSV,3,2,09,79,21,082,18,80,59,027,33,81,30,040,32,82,48,103,16*6E
$GLGSV,3,3,09,83,25,153,22*57
$GNGLL,4128.96706,N,00416.71168,W,202154.00,A,D*6B
$GNRMC,202155.00,A,4128.96706,N,00416.71166,W,0.028,,141023,,,D*72
$GNVTG,,T,,M,0.028,N,0.052,K,D*35
$GNGGA,202155.00,4128.96706,N,00416.71166,W,2,12,0.64,871.7,M,50.2,M,,0000*58
$GNGSA,A,3,24,12,25,32,31,06,29,28,11,,,,1.27,0.64,1.10*1C
$GNGSA,A,3,79,73,80,81,70,71,82,83,,,,,1.27,0.64,1.10*11
$GPGSV,3,1,11,06,10,039,31,11,19,074,31,12,44,058,40,24,22,129,40*7F
$GPGSV,3,2,11,25,74,348,38,28,34,309,38,29,50,187,32,31,09,306,38*70
$GPGSV,3,3,11,32,47,262,40,36,34,141,33,49,41,166,37*42
$GLGSV,3,1,09,70,25,239,16,71,31,297,35,72,08,340,,73,34,303,32*67
$GLGSV,3,2,09,79,21,082,20,80,59,027,33,81,30,040,32,82,48,103,16*65
$GLGSV,3,3,09,83,25,153,21*54
$GNGLL,4128.96706,N,00416.71166,W,202155.00,A,D*64
$GNRMC,202156.00,A,4128.96704,N,00416.71165,W,0.006,,141023,,,D*7C
$GNVTG,,T,,M,0.006,N,0.011,K,D*3E
$GNGGA,202156.00,4128.96704,N,00416.71165,W,2,12,0.64,871.7,M,50.2,M,,0000*5A
$GNGSA,A,3,24,12,25,32,31,06,29,28,11,,,,1.27,0.64,1.10*1C
$GNGSA,A,3,79,73,80,81,70,71,82,83,,,,,1.27,0.64,1.10*11
$GPGSV,3,1,11,06,10,039,30,11,19,074,31,12,44,058,40,24,22,129,40*7E
$GPGSV,3,2,11,25,74,348,38,28,34,309,38,29,50,187,32,31,09,306,37*7F
$GPGSV,3,3,11,32,47,262,40,36,34,141,33,49,41,166,37*42
$GLGSV,3,1,09,70,25,239,17,71,31,297,35,72,08,340,,73,34,303,31*65
$GLGSV,3,2,09,79,21,082,20,80,59,027,33,81,30,040,32,82,48,103,17*64
$GLGSV,3,3,09,83,25,153,22*57
$GNGLL,4128.96704,N,00416.71165,W,202156.00,A,D*66
$GNRMC,202157.00,A,4128.96702,N,00416.71164,W,0.025,,141023,,,D*7B
$GNVTG,,T,,M,0.025,N,0.046,K,D*3D
$GNGGA,202157.00,4128.96702,N,00416.71164,W,2,12,0.64,871.8,M,50.2,M,,0000*53
$GNGSA,A,3,24,12,25,32,31,06,29,28,11,,,,1.27,0.64,1.10*1C
$GNGSA,A,3,79,73,80,81,70,71,82,83,,,,,1.27,0.64,1.10*11
$GPGSV,3,1,11,06,10,039,31,11,19,074,31,12,44,058,40,24,22,129,40*7F
$GPGSV,3,2,11,25,74,348,38,28,34,309,38,29,50,187,32,31,09,306,38*70
$GPGSV,3,3,11,32,47,262,40,36,34,141,33,49,41,166,37*42
$GLGSV,3,1,09,70,25,239,17,71,31,297,35,72,08,340,,73,34,303,31*65
$GLGSV,3,2,09,79,21,082,21,80,59,027,33,81,30,040,33,82,48,103,16*65
$GLGSV,3,3,09,83,25,153,22*57
$GNGLL,4128.96702,N,00416.71164,W,202157.00,A,D*60
$GNRMC,202158.00,A,4128.96701,N,00416.71162,W,0.007,,141023,,,D*71
$GNVTG,,T,,M,0.007,N,0.013,K,D*3D
$GNGGA,202158.00,4128.96701,N,00416.71162,W,2,12,0.64,871.9,M,50.2,M,,0000*58
$GNGSA,A,3,24,12,25,32,31,06,29,28,11,,,,1.27,0.64,1.10*1C
$GNGSA,A,3,79,73,80,81,70,71,82,83,,,,,1.27,0.64,1.10*11
$GPGSV,3,1,11,06,10,039,31,11,19,074,31,12,44,058,40,24,22,129,40*7F
$GPGSV,3,2,11,25,74,348,38,28,34,309,38,29,50,187,33,31,09,306,38*71
$GPGSV,3,3,11,32,47,262,40,36,34,141,33,49,41,166,37*42
$GLGSV,3,1,09,70,25,239,18,71,31,297,35,72,08,340,,73,34,303,30*6B
$GLGSV,3,2,09,79,21,082,19,80,59,027,33,81,30,040,32,82,48,103,16*6F
$GLGSV,3,3,09,83,25,153,22*57
$GNGLL,4128.96701,N,00416.71162,W,202158.00,A,D*6A
$GNRMC,202159.00,A,4128.96700,N,00416.71161,W,0.011,,141023,,,D*75
$GNVTG,,T,,M,0.011,N,0.021,K,D*3B
$GNGGA,202159.00,4128.96700,N,00416.71161,W,2,12,0.64,872.0,M,50.2,M,,0000*51
$GNGSA,A,3,24,12,25,32,31,06,29,28,11,,,,1.27,0.64,1.10*1C
$GNGSA,A,3,79,73,80,81,70,71,82,83,,,,,1.27,0.64,1.10*11
$GPGSV,3,1,11,06,10,039,31,11,19,074,31,12,44,058,40,24,22,129,40*7F
$GPGSV,3,2,11,25,74,348,38,28,34,309,38,29,50,187,33,31,09,306,38*71
$GPGSV,3,3,11,32,47,262,40,36,34,141,33,49,41,166,37*42
$GLGSV,3,1,09,70,25,239,18,71,31,297,35,72,08,340,,73,34,303,31*6A
$GLGSV,3,2,09,79,21,082,18,80,59,027,33,81,30,040,33,82,48,103,17*6E
$GLGSV,3,3,09,83,25,153,22*57
$GNGLL,4128.96700,N,00416.71161,W,202159.00,A,D*69
$GNRMC,202200.00,A,4128.96699,N,00416.71161,W,0.019,,141023,,,D*73
$GNVTG,,T,,M,0.019,N,0.034,K,D*37
$GNGGA,202200.00,4128.96699,N,00416.71161,W,2,12,0.64,872.1,M,50.2,M,,0000*5E
$GNGSA,A,3,24,12,25,32,31,06,29,28,11,,,,1.27,0.64,1.10*1C
$GNGSA,A,3,79,73,80,81,70,71,82,83,,,,,1.27,0.64,1.10*11
$GPGSV,3,1,11,06,10,039,31,11,19,074,31,12,44,058,40,24,22,129,40*7F
$GPGSV,3,2,11,25,74,348,38,28,34,309,38,29,50,187,33,31,09,306,38*71
$GPGSV,3,3,11,32,47,262,40,36,34,141,33,49,41,166,37*42
$GLGSV,3,1,09,70,25,239,18,71,31,297,35,72,08,340,,73,34,303,30*6B
$GLGSV,3,2,09,79,21,082,18,80,59,027,33,81,30,040,33,82,48,103,18*61
$GLGSV,3,3,09,83,25,153,22*57
$GNGLL,4128.96699,N,00416.71161,W,202200.00,A,D*67
$GNRMC,202201.00,A,4128.96700,N,00416.71161,W,0.027,,141023,,,D*7E
$GNVTG,,T,,M,0.027,N,0.049,K,D*30
$GNGGA,202201.00,4128.96700,N,00416.71161,W,2,12,0.64,872.3,M,50.2,M,,0000*5C
$GNGSA,A,3,24,12,25,32,31,06,29,28,11,,,,1.27,0.64,1.10*1C
$GNGSA,A,3,79,73,80,81,70,71,82,83,,,,,1.27,0.64,1.10*11
$GPGSV,3,1,11,06,10,039,31,11,19,074,31,12,44,058,40,24,22,129,40*7F
$GPGSV,3,2,11,25,74,348,38,28,34,309,38,29,50,187,33,31,09,306,38*71
$GPGSV,3,3,11,32,47,262,40,36,34,141,33,49,41,166,37*42
$GLGSV,3,1,09,70,25,239,17,71,31,297,35,72,08,340,,73,34,303,31*65
$GLGSV,3,2,09,79,21,082,19,80,59,027,33,81,30,040,33,82,48,103,17*6F
$GLGSV,3,3,09,83,25,153,22*57
$GNGLL,4128.96700,N,00416.71161,W,202201.00,A,D*67
$GNRMC,202202.00,A,4128.96701,N,00416.71160,W,0.023,,141023,,,D*79
$GNVTG,,T,,M,0.023,N,0.042,K,D*3F
$GNGGA,202202.00,4128.96701,N,00416.71160,W,2,12,0.64,872.4,M,50.2,M,,0000*58
$GNGSA,A,3,24,12,25,32,31,06,29,28,11,,,,1.27,0.64,1.10*1C
$GNGSA,A,3,79,73,80,81,70,71,82,83,,,,,1.27,0.64,1.10*11
$GPGSV,3,1,11,06,10,039,31,11,19,074,32,12,44,058,40,24,22,129,40*7C
$GPGSV,3,2,11,25,74,348,38,28,34,309,38,29,50,187,32,31,09,306,38*70
$GPGSV,3,3,11,32,47,262,40,36,34,141,33,49,41,166,37*42
$GLGSV,3,1,09,70,25,239,18,71,31,297,35,72,08,340,,73,34,303,31*6A
$GLGSV,3,2,09,79,21,082,19,80,59,027,33,81,30,040,32,82,48,103,16*6F
$GLGSV,3,3,09,83,25,153,22*57
$GNGLL,4128.96701,N,00416.71160,W,202202.00,A,D*64
$GNRMC,202203.00,A,4128.96702,N,00416.71160,W,0.018,,141023,,,D*73
$GNVTG,,T,,M,0.018,N,0.034,K,D*36
$GNGGA,202203.00,4128.96702,N,00416.71160,W,2,12,0.64,872.4,M,50.2,M,,0000*5A
$GNGSA,A,3,24,12,25,32,31,06,29,28,11,,,,1.27,0.64,1.10*1C
$GNGSA,A,3,79,73,80,81,70,71,82,83,,,,,1.27,0.64,1.10*11
$GPGSV,3,1,11,06,10,039,32,11,19,074,32,12,44,058,39,24,22,129,40*71
$GPGSV,3,2,11,25,74,348,38,28,34,309,38,29,50,187,32,31,09,306,37*7F
$GPGSV,3,3,11,32,47,262,40,36,34,141,33,49,41,166,37*42
$GLGSV,3,1,09,70,25,239,18,71,31,297,35,72,08,340,,73,34,303,31*6A
$GLGSV,3,2,09,79,21,082,20,80,59,027,33,81,30,040,32,82,48,103,16*65
$GLGSV,3,3,09,83,25,153,22*57
$GNGLL,4128.96702,N,00416.71160,W,202203.00,A,D*66
$GNRMC,202204.00,A,4128.96704,N,00416.71156,W,0.012,,141023,,,D*7D
$GNVTG,,T,,M,0.012,N,0.022,K,D*3B
$GNGGA,202204.00,4128.96704,N,00416.71156,W,2,12,0.64,872.6,M,50.2,M,,0000*5C
$GNGSA,A,3,24,12,25,32,31,06,29,28,11,,,,1.27,0.64,1.10*1C
$GNGSA,A,3,79,73,80,81,70,71,82,83,,,,,1.27,0.64,1.10*11
$GPGSV,3,1,11,06,10,039,32,11,19,074,32,12,44,058,40,24,22,129,40*7F
$GPGSV,3,2,11,25,74,348,38,28,34,309,38,29,50,187,32,31,09,306,38*70
$GPGSV,3,3,11,32,47,262,40,36,34,141,33,49,41,166,37*42
$GLGSV,3,1,09,70,25,239,18,71,31,297,35,72,08,340,,73,34,303,31*6A
$GLGSV,3,2,09,79,21,082,20,80,59,027,33,81,30,040,33,82,48,103,17*65
$GLGSV,3,3,09,83,25,153,22*57
$GNGLL,4128.96704,N,00416.71156,W,202204.00,A,D*62
$GNRMC,202205.00,A,4128.96707,N,00416.71153,W,0.029,,141023,,,D*72
$GNVTG,,T,,M,0.029,N,0.053,K,D*35
$GNGGA,202205.00,4128.96707,N,00416.71153,W,2,12,0.64,872.7,M,50.2,M,,0000*5A
$GNGSA,A,3,24,12,25,32,31,06,29,28,11,,,,1.27,0.64,1.10*1C
$GNGSA,A,3,79,73,80,81,70,71,82,83,,,,,1.27,0.64,1.10*11
$GPGSV,3,1,11,06,10,039,31,11,19,074,32,12,44,058,40,24,22,129,40*7C
$GPGSV,3,2,11,25,74,348,37,28,34,309,38,29,50,187,32,31,09,306,38*7F
$GPGSV,3,3,11,32,47,262,40,36,34,141,33,49,41,166,37*42
$GLGSV,3,1,09,70,25,239,18,71,31,297,35,72,08,340,,73,34,303,31*6A
$GLGSV,3,2,09,79,21,082,19,80,59,027,33,81,30,040,33,82,48,103,17*6F
$GLGSV,3,3,09,83,25,153,22*57
$GNGLL,4128.96707,N,00416.71153,W,202205.00,A,D*65
$GNRMC,202206.00,A,4128.96711,N,00416.71149,W,0.034,,141023,,,D*71
$GNVTG,,T,,M,0.034,N,0.063,K,D*3A
$GNGGA,202206.00,4128.96711,N,00416.71149,W,2,12,0.64,872.9,M,50.2,M,,0000*5B
$GNGSA,A,3,24,12,25,32,31,06,29,28,11,,,,1.27,0.64,1.10*1C
$GNGSA,A,3,79,73,80,81,70,71,82,83,,,,,1.27,0.64,1.10*11
$GPGSV,3,1,11,06,10,039,31,11,19,074,32,12,44,058,40,24,22,129,40*7C
$GPGSV,3,2,11,25,74,348,37,28,34,309,38,29,50,187,32,31,09,306,38*7F
$GPGSV,3,3,11,32,47,262,40,36,34,141,33,49,41,166,37*42
$GLGSV,3,1,09,70,25,239,18,71,31,297,35,72,08,340,,73,34,303,30*6B
$GLGSV,3,2,09,79,21,082,19,80,59,027,33,81,30,040,33,82,48,103,17*6F
$GLGSV,3,3,09,83,25,153,22*57
$GNGLL,4128.96711,N,00416.71149,W,202206.00,A,D*6A
$GNRMC,202207.00,A,4128.96713,N,00416.71146,W,0.022,,141023,,,D*7A
$GNVTG,,T,,M,0.022,N,0.041,K,D*3D
$GNGGA,202207.00,4128.96713,N,00416.71146,W,2,12,0.64,873.0,M,50.2,M,,0000*5F
$GNGSA,A,3,24,12,25,32,31,06,29,28,11,,,,1.27,0.64,1.10*1C
$GNGSA,A,3,79,73,80,81,70,71,82,83,,,,,1.27,0.64,1.10*11
$GPGSV,3,1,11,06,10,039,32,11,19,074,31,12,44,058,40,24,22,129,40*7C
$GPGSV,3,2,11,25,74,348,37,28,34,309,38,29,50,187,32,31,09,306,38*7F
$GPGSV,3,3,11,32,47,262,40,36,34,141,33,49,41,166,37*42
$GLGSV,3,1,09,70,25,239,19,71,31,297,35,72,08,340,,73,34,303,31*6B
$GLGSV,3,2,09,79,21,082,19,80,59,027,33,81,30,040,33,82,48,103,18*60
$GLGSV,3,3,09,83,25,153,22*57
$GNGLL,4128.96713,N,00416.71146,W,202207.00,A,D*66
$GNRMC,202208.00,A,4128.96715,N,00416.71143,W,0.032,,141023,,,D*77
$GNVTG,,T,,M,0.032,N,0.060,K,D*3F
$GNGGA,202208.00,4128.96715,N,00416.71143,W,2,12,0.64,873.1,M,50.2,M,,0000*52
$GNGSA,A,3,24,12,25,32,31,06,29,28,11,,,,1.27,0.64,1.10*1C
$GNGSA,A,3,79,73,80,81,70,71,82,83,,,,,1.27,0.64,1.10*11
$GPGSV,3,1,11,06,10,039,31,11,19,074,31,12,44,058,40,24,22,129,40*7F
$GPGSV,3,2,11,25,74,348,37,28,34,309,38,29,50,187,33,31,09,306,38*7E
$GPGSV,3,3,11,32,47,262,40,36,34,141,33,49,41,166,37*42
$GLGSV,3,1,09,70,25,239,18,71,31,297,35,72,08,340,,73,34,303,31*6A
$GLGSV,3,2,09,79,21,082,19,80,59,027,33,81,30,040,33,82,48,103,18*60
$GLGSV,3,3,09,83,25,153,22*57
$GNGLL,4128.96715,N,00416.71143,W,202208.00,A,D*6A
$GNRMC,202209.00,A,4128.96716,N,00416.71141,W,0.012,,141023,,,D*75
$GNVTG,,T,,M,0.012,N,0.022,K,D*3B
$GNGGA,202209.00,4128.96716,N,00416.71141,W,2,12,0.64,873.2,M,50.2,M,,0000*51
$GNGSA,A,3,24,12,25,32,31,06,29,28,11,,,,1.27,0.64,1.10*1C
$GNGSA,A,3,79,73,80,81,70,71,82,83,,,,,1.27,0.64,1.10*11
$GPGSV,3,1,11,06,10,039,32,11,19,074,31,12,44,058,40,24,22,129,40*7C
$GPGSV,3,2,11,25,74,348,37,28,34,309,38,29,50,187,33,31,09,306,38*7E
$GPGSV,3,3,11,32,47,262,40,36,34,141,33,49,41,166,37*42
$GLGSV,3,1,09,70,25,239,19,71,31,297,34,72,08,340,,73,34,303,31*6A
$GLGSV,3,2,09,79,21,082,20,80,59,027,33,81,30,040,33,82,48,103,19*6B
$GLGSV,3,3,09,83,25,153,21*54
$GNGLL,4128.96716,N,00416.71141,W,202209.00,A,D*6A
$GNRMC,202210.00,A,4128.96717,N,00416.71141,W,0.020,,141023,,,D*7D
$GNVTG,,T,,M,0.020,N,0.038,K,D*31
$GNGGA,202210.00,4128.96717,N,00416.71141,W,2,12,0.64,873.3,M,50.2,M,,0000*59
$GNGSA,A,3,24,12,25,32,31,06,29,28,11,,,,1.27,0.64,1.10*1C
$GNGSA,A,3,79,73,80,81,70,71,82,83,,,,,1.27,0.64,1.10*11
$GPGSV,3,1,11,06,10,039,31,11,19,074,31,12,44,058,40,24,22,129,40*7F
$GPGSV,3,2,11,25,74,348,37,28,34,309,38,29,50,187,33,31,09,306,38*7E
$GPGSV,3,3,11,32,47,262,40,36,34,141,33,49,41,166,37*42
$GLGSV,3,1,09,70,25,239,19,71,31,297,34,72,08,340,,73,34,303,31*6A
$GLGSV,3,2,09,79,21,082,20,80,59,027,33,81,30,040,34,82,48,103,19*6C
$GLGSV,3,3,09,83,25,153,21*54
$GNGLL,4128.96717,N,00416.71141,W,202210.00,A,D*63
$GNRMC,202211.00,A,4128.96717,N,00416.71140,W,0.014,,141023,,,D*7A
$GNVTG,,T,,M,0.014,N,0.026,K,D*39
$GNGGA,202211.00,4128.96717,N,00416.71140,W,2,12,0.64,873.4,M,50.2,M,,0000*5E
$GNGSA,A,3,24,12,25,32,31,06,29,28,11,,,,1.27,0.64,1.10*1C
$GNGSA,A,3,79,73,80,81,70,71,82,83,,,,,1.27,0.64,1.10*11
$GPGSV,3,1,11,06,10,039,31,11,19,074,32,12,44,058,40,24,22,129,39*72
$GPGSV,3,2,11,25,74,348,37,28,34,309,38,29,50,187,33,31,09,306,38*7E
$GPGSV,3,3,11,32,47,262,40,36,34,141,34,49,41,166,37*45
$GLGSV,3,1,09,70,25,239,18,71,31,296,34,72,08,340,,73,34,303,31*6A
$GLGSV,3,2,09,79,21,082,21,80,59,027,33,81,30,040,34,82,48,103,20*67
$GLGSV,3,3,09,83,25,153,22*57
$GNGLL,4128.96717,N,00416.71140,W,202211.00,A,D*63
$GNRMC,202212.00,A,4128.96716,N,00416.71140,W,0.018,,141023,,,D*74
$GNVTG,,T,,M,0.018,N,0.033,K,D*31
$GNGGA,202212.00,4128.96716,N,00416.71140,W,2,12,0.64,873.4,M,50.2,M,,0000*5C
$GNGSA,A,3,24,12,25,32,31,06,29,28,11,,,,1.27,0.64,1.10*1C
$GNGSA,A,3,79,73,80,81,70,71,82,83,,,,,1.27,0.64,1.10*11
$GPGSV,3,1,11,06,10,039,32,11,19,074,31,12,44,058,40,24,22,129,39*72
$GPGSV,3,2,11,25,74,348,37,28,34,309,38,29,50,187,33,31,09,306,38*7E
$GPGSV,3,3,11,32,47,262,39,36,34,141,33,49,41,166,37*4C
$GLGSV,3,1,09,70,25,239,18,71,31,296,34,72,09,340,,73,34,303,31*6B
$GLGSV,3,2,09,79,21,082,20,80,59,027,33,81,30,040,34,82,48,103,21*67
$GLGSV,3,3,09,83,25,153,22*57
$GNGLL,4128.96716,N,00416.71140,W,202212.00,A,D*61
$GNRMC,202213.00,A,4128.96714,N,00416.71141,W,0.011,,141023,,,D*7F
$GNVTG,,T,,M,0.011,N,0.020,K,D*3A
$GNGGA,202213.00,4128.96714,N,00416.71141,W,2,12,0.64,873.5,M,50.2,M,,0000*5F
$GNGSA,A,3,24,12,25,32,31,06,29,28,11,,,,1.27,0.64,1.10*1C
$GNGSA,A,3,79,73,80,81,70,71,82,83,,,,,1.27,0.64,1.10*11
$GPGSV,3,1,11,06,10,039,32,11,19,074,31,12,44,058,40,24,22,129,39*72
$GPGSV,3,2,11,25,74,348,38,28,34,309,38,29,50,187,33,31,09,306,38*71
$GPGSV,3,3,11,32,47,262,39,36,34,141,33,49,41,166,37*4C
$GLGSV,3,1,09,70,25,239,19,71,31,296,35,72,09,340,,73,34,304,31*6C
$GLGSV,3,2,09,79,21,082,20,80,59,027,33,81,30,040,34,82,48,103,21*67
$GLGSV,3,3,09,83,25,153,21*54
$GNGLL,4128.96714,N,00416.71141,W,202213.00,A,D*63
$GNRMC,202214.00,A,4128.96711,N,00416.71141,W,0.008,,141023,,,D*75
$GNVTG,,T,,M,0.008,N,0.014,K,D*35
$GNGGA,202214.00,4128.96711,N,00416.71141,W,2,12,0.64,873.5,M,50.2,M,,0000*5D
$GNGSA,A,3,24,12,25,32,31,06,29,28,11,,,,1.27,0.64,1.10*1C
$GNGSA,A,3,79,73,80,81,70,71,82,83,,,,,1.27,0.64,1.10*11
$GPGSV,3,1,11,06,10,039,31,11,19,074,31,12,44,058,40,24,22,129,39*71
$GPGSV,3,2,11,25,74,348,38,28,34,309,38,29,50,187,33,31,09,306,38*71
$GPGSV,3,3,11,32,47,262,39,36,34,141,33,49,41,166,37*4C
$GLGSV,3,1,09,70,25,239,19,71,31,296,35,72,09,340,21,73,34,304,31*6F
$GLGSV,3,2,09,79,21,082,19,80,59,027,33,81,30,040,34,82,48,103,21*6D
$GLGSV,3,3,09,83,25,153,22*57
$GNGLL,4128.96711,N,00416.71141,W,202214.00,A,D*61
$GNRMC,202215.00,A,4128.96707,N,00416.71144,W,0.010,,141023,,,D*7F
$GNVTG,,T,,M,0.010,N,0.019,K,D*31
$GNGGA,202215.00,4128.96707,N,00416.71144,W,2,12,0.64,873.5,M,50.2,M,,0000*5E
$GNGSA,A,3,24,12,25,32,31,06,29,28,11,,,,1.27,0.64,1.10*1C
$GNGSA,A,3,79,73,80,81,70,71,82,83,,,,,1.27,0.64,1.10*11
$GPGSV,3,1,11,06,10,039,31,11,19,074,31,12,44,058,40,24,22,129,39*71
$GPGSV,3,2,11,25,74,348,38,28,34,309,38,29,50,187,33,31,09,306,38*71
$GPGSV,3,3,11,32,47,262,39,36,34,141,34,49,41,166,37*4B
$GLGSV,3,1,09,70,25,239,18,71,31,296,35,72,09,340,21,73,34,304,31*6E
$GLGSV,3,2,09,79,21,082,20,80,59,027,33,81,30,040,34,82,48,103,21*67
$GLGSV,3,3,09,83,25,153,21*54
$GNGLL,4128.96707,N,00416.71144,W,202215.00,A,D*62
$GNRMC,202216.00,A,4128.96703,N,00416.71146,W,0.004,,141023,,,D*7F
$GNVTG,,T,,M,0.004,N,0.008,K,D*34
$GNGGA,202216.00,4128.96703,N,00416.71146,W,2,12,0.64,873.4,M,50.2,M,,0000*5A
$GNGSA,A,3,24,12,25,32,31,06,29,28,11,,,,1.27,0.64,1.10*1C
$GNGSA,A,3,79,73,80,81,70,71,82,83,,,,,1.27,0.64,1.10*11
$GPGSV,3,1,11,06,10,039,31,11,19,074,30,12,44,058,40,24,22,129,39*70
