$GNGSA,A,3,31,28,27,23,25,,,,,,,,3.58,2.44,2.62*1D
$GNGSA,A,3,82,78,,,,,,,,,,,3.58,2.44,2.62*13
$GPGSV,4,1,13,04,04,285,,05,10,044,17,16,44,310,,18,67,091,17*70
$GPGSV,4,2,13,23,14,133,29,25,06,121,22,26,78,321,,27,28,265,21*76
$GPGSV,4,3,13,28,29,189,42,29,26,060,20,31,49,215,38,36,36,142,*75
$GPGSV,4,4,13,49,42,167,*40
$GLGSV,2,1,07,72,00,025,,78,38,142,38,79,84,348,,80,28,326,*63
$GLGSV,2,2,07,81,82,324,,82,39,225,32,88,30,035,*55
$GNGLL,4025.00546,N,00340.22596,W,145432.00,A,A*69
$$GNRMC,145433.00,A,4025.00666,N,00340.22613,W,0.474,,240224,,,A*7B
$GNVTG,,T,,M,0.474,N,0.878,K,A*3D
$GNGGA,145433.00,4025.00666,N,00340.22613,W,1,07,2.44,682.2,M,50.2,M,,*5E
$GNGSA,A,3,31,28,27,23,25,,,,,,,,3.58,2.44,2.62*1D
$GNGSA,A,3,82,78,,,,,,,,,,,3.58,2.44,2.62*13
$GPGSV,4,1,13,04,04,285,,05,10,044,17,16,44,310,,18,67,091,16*71
$GPGSV,4,2,13,23,14,133,28,25,06,121,21,26,78,321,,27,28,265,20*75
$GPGSV,4,3,13,28,29,189,39,29,26,060,19,31,49,215,36,36,36,142,*7D
$GPGSV,4,4,13,49,42,167,*40
$GLGSV,2,1,07,72,00,025,,78,38,142,38,79,84,348,,80,28,326,*63
$GLGSV,2,2,07,81,82,324,,82,39,225,32,88,30,035,*55
$GNGLL,4025.00666,N,00340.22613,W,145433.00,A,A*67
$GNRMC,145434.00,A,4025.00732,N,00340.22618,W,0.318,,240224,,,A*7A
$GNVTG,,T,,M,0.318,N,0.588,K,A*32
$GNGGA,145434.00,4025.00732,N,00340.22618,W,1,07,2.44,681.2,M,50.2,M,,*51
$GNGSA,A,3,31,28,27,23,25,,,,,,,,3.58,2.44,2.62*1D
$GNGSA,A,3,82,78,,,,,,,,,,,3.58,2.44,2.62*13
$GPGSV,4,1,13,04,04,285,,05,10,044,17,16,44,310,21,18,67,091,13*77
$GPGSV,4,2,13,23,14,133,27,25,06,121,21,26,78,321,,27,28,265,18*71
$GPGSV,4,3,13,28,29,189,38,29,26,060,17,31,49,215,35,36,36,142,*71
$GPGSV,4,4,13,49,42,167,*40
$GLGSV,2,1,07,72,00,025,,78,38,142,37,79,84,348,,80,28,326,*6C
$GLGSV,2,2,07,81,82,324,,82,39,225,32,88,30,035,*55
$GNGLL,4025.00732,N,00340.22618,W,145434.00,A,A*6B
$GNRMC,145435.00,A,4025.00763,N,00340.22617,W,0.273,,240224,,,A*7C
$GNVTG,,T,,M,0.273,N,0.506,K,A*38
$GNGGA,145435.00,4025.00763,N,00340.22617,W,1,07,2.44,681.0,M,50.2,M,,*59
$GNGSA,A,3,31,28,27,23,25,,,,,,,,3.58,2.44,2.62*1D
$GNGSA,A,3,82,78,,,,,,,,,,,3.58,2.44,2.62*13
$GPGSV,4,1,13,04,04,285,,05,10,044,15,16,44,310,18,18,67,091,09*74
$GPGSV,4,2,13,23,14,133,26,25,06,121,20,26,78,321,,27,28,265,17*7E
$GPGSV,4,3,13,28,29,189,38,29,26,060,16,31,49,215,35,36,36,142,*70
$GPGSV,4,4,13,49,42,167,*40
$GLGSV,2,1,07,72,00,025,,78,38,142,37,79,84,348,,80,28,326,*6C
$GLGSV,2,2,07,81,82,324,,82,39,225,32,88,30,035,*55
$GNGLL,4025.00763,N,00340.22617,W,145435.00,A,A*61
$GNRMC,145436.00,A,4025.00771,N,00340.22615,W,0.009,,240224,,,A*71
$GNVTG,,T,,M,0.009,N,0.017,K,A*32
$GNGGA,145436.00,4025.00771,N,00340.22615,W,1,07,2.44,681.2,M,50.2,M,,*59
$GNGSA,A,3,31,28,27,23,25,,,,,,,,3.58,2.44,2.62*1D
$GNGSA,A,3,82,78,,,,,,,,,,,3.58,2.44,2.62*13
$GPGSV,4,1,13,04,04,285,,05,10,044,17,16,44,310,,18,67,091,12*75
$GPGSV,4,2,13,23,14,133,27,25,06,121,21,26,78,321,19,27,28,265,17*76
$GPGSV,4,3,13,28,29,189,39,29,26,060,16,31,49,215,36,36,36,142,*72
$GPGSV,4,4,13,49,42,167,*40
$GLGSV,2,1,07,72,00,025,,78,38,142,37,79,84,348,,80,28,326,*6C
$GLGSV,2,2,07,81,82,324,,82,39,225,32,88,30,035,*55
$GNGLL,4025.00771,N,00340.22615,W,145436.00,A,A*63
$GNRMC,145437.00,A,4025.00742,N,00340.22626,W,0.098,,240224,,,A*78
$GNVTG,,T,,M,0.098,N,0.182,K,A*37
$GNGGA,145437.00,4025.00742,N,00340.22626,W,1,08,1.55,681.1,M,50.2,M,,*57
$GNGSA,A,3,18,31,28,27,23,25,,,,,,,2.25,1.55,1.62*1F
$GNGSA,A,3,82,78,,,,,,,,,,,2.25,1.55,1.62*18
$GPGSV,4,1,13,04,04,285,,05,10,044,16,16,44,310,,18,67,091,13*75
$GPGSV,4,2,13,23,14,133,27,25,06,121,21,26,78,321,17,27,28,265,17*78
$GPGSV,4,3,13,28,29,189,39,29,26,060,15,31,49,215,36,36,36,142,*71
$GPGSV,4,4,13,49,42,167,*40
$GLGSV,2,1,07,72,00,025,,78,38,142,37,79,84,348,,80,28,326,*6C
$GLGSV,2,2,07,81,82,324,,82,39,225,32,88,30,035,*55
$GNGLL,4025.00742,N,00340.22626,W,145437.00,A,A*62
$GNRMC,145438.00,A,4025.00710,N,00340.22630,W,0.235,,240224,,,A*72
$GNVTG,,T,,M,0.235,N,0.435,K,A*3B
$GNGGA,145438.00,4025.00710,N,00340.22630,W,1,08,1.55,681.3,M,50.2,M,,*5A
$GNGSA,A,3,18,31,28,27,23,25,,,,,,,2.25,1.55,1.62*1F
$GNGSA,A,3,82,78,,,,,,,,,,,2.25,1.55,1.62*18
$GPGSV,4,1,13,04,04,285,,05,10,044,14,16,44,310,,18,67,091,13*77
$GPGSV,4,2,13,23,14,133,27,25,06,121,21,26,78,321,15,27,28,265,16*7B
$GPGSV,4,3,13,28,29,189,39,29,26,060,15,31,49,215,36,36,36,142,*71
$GPGSV,4,4,13,49,42,167,*40
$GLGSV,2,1,07,72,00,025,,78,38,142,37,79,84,348,,80,28,326,*6C
$GLGSV,2,2,07,81,82,324,,82,39,225,32,88,30,035,*55
$GNGLL,4025.00710,N,00340.22630,W,145438.00,A,A*6D
$GNRMC,145439.00,A,4025.00688,N,00340.22633,W,0.368,,240224,,,A*79
$GNVTG,,T,,M,0.368,N,0.682,K,A*3C
$GNGGA,145439.00,4025.00688,N,00340.22633,W,1,08,1.55,681.1,M,50.2,M,,*5A
$GNGSA,A,3,18,31,28,27,23,25,,,,,,,2.25,1.55,1.62*1F
$GNGSA,A,3,82,78,,,,,,,,,,,2.25,1.55,1.62*18
$GPGSV,4,1,13,04,04,285,,05,10,044,13,16,44,310,,18,67,091,14*77
$GPGSV,4,2,13,23,14,133,27,25,06,121,21,26,78,321,14,27,28,265,14*78
$GPGSV,4,3,13,28,29,189,39,29,26,060,14,31,49,215,36,36,36,142,*70
$GPGSV,4,4,13,49,42,167,*40
$GLGSV,2,1,07,72,00,025,,78,38,142,37,79,84,348,,80,28,326,*6C
$GLGSV,2,2,07,81,82,324,,82,39,225,32,88,30,035,*55
$GNGLL,4025.00688,N,00340.22633,W,145439.00,A,A*6F
$GNRMC,145440.00,A,4025.00671,N,00340.22638,W,0.343,,240224,,,A*73
$GNVTG,,T,,M,0.343,N,0.636,K,A*3A
$GNGGA,145440.00,4025.00671,N,00340.22638,W,1,08,1.55,681.0,M,50.2,M,,*58
$GNGSA,A,3,18,31,28,27,23,25,,,,,,,2.25,1.55,1.62*1F
$GNGSA,A,3,82,78,,,,,,,,,,,2.25,1.55,1.62*18
$GPGSV,4,1,13,04,04,285,,05,10,044,11,16,44,310,,18,67,091,14*75
$GPGSV,4,2,13,23,14,133,27,25,06,121,21,26,78,321,12,27,28,265,16*7C
$GPGSV,4,3,13,28,29,189,39,29,26,060,13,31,49,215,36,36,36,142,*77
$GPGSV,4,4,13,49,42,167,*40
$GLGSV,2,1,07,72,00,025,,78,38,142,37,79,84,348,,80,28,326,*6C
$GLGSV,2,2,07,81,82,324,,82,39,225,32,88,30,035,*55
$GNGLL,4025.00671,N,00340.22638,W,145440.00,A,A*6C
$GNRMC,145441.00,A,4025.00660,N,00340.22637,W,0.304,,240224,,,A*7E
$GNVTG,,T,,M,0.304,N,0.562,K,A*3B
$GNGGA,145441.00,4025.00660,N,00340.22637,W,1,08,1.55,681.0,M,50.2,M,,*56
$GNGSA,A,3,18,31,28,27,23,25,,,,,,,2.25,1.55,1.62*1F
$GNGSA,A,3,82,78,,,,,,,,,,,2.25,1.55,1.62*18
$GPGSV,4,1,13,04,04,285,,05,10,044,11,16,44,310,,18,67,091,13*72
$GPGSV,4,2,13,23,14,133,27,25,06,121,21,26,78,321,10,27,28,265,16*7E
$GPGSV,4,3,13,28,29,189,39,29,26,060,,31,49,215,36,36,36,142,*75
$GPGSV,4,4,13,49,42,167,*40
$GLGSV,2,1,07,72,00,025,,78,38,142,37,79,84,348,,80,28,326,*6C
$GLGSV,2,2,07,81,82,324,,82,39,225,32,88,30,035,*55
$GNGLL,4025.00660,N,00340.22637,W,145441.00,A,A*62
$GNRMC,145442.00,A,4025.00647,N,00340.22631,W,0.129,,240224,,,A*73
$GNVTG,,T,,M,0.129,N,0.240,K,A*31
$GNGGA,145442.00,4025.00647,N,00340.22631,W,1,08,1.55,681.0,M,50.2,M,,*56
$GNGSA,A,3,18,31,28,27,23,25,,,,,,,2.25,1.55,1.62*1F
$GNGSA,A,3,82,78,,,,,,,,,,,2.25,1.55,1.62*18
$GPGSV,4,1,13,04,04,285,,05,10,044,14,16,44,310,,18,67,091,10*74
$GPGSV,4,2,13,23,14,133,26,25,06,121,20,26,78,321,09,27,28,265,16*76
$GPGSV,4,3,13,28,29,189,39,29,26,060,,31,49,215,36,36,36,142,*75
$GPGSV,4,4,13,49,42,167,*40
$GLGSV,2,1,07,72,00,025,,78,38,142,38,79,84,348,,80,28,326,*63
$GLGSV,2,2,07,81,82,324,,82,39,225,33,88,30,035,*54
$GNGLL,4025.00647,N,00340.22631,W,145442.00,A,A*62
$GNRMC,145443.00,A,4025.00670,N,00340.22633,W,0.296,,240224,,,A*73
$GNVTG,,T,,M,0.296,N,0.548,K,A*39
$GNGGA,145443.00,4025.00670,N,00340.22633,W,1,07,2.44,680.8,M,50.2,M,,*54
$GNGSA,A,3,31,28,27,23,25,,,,,,,,3.59,2.44,2.63*1D
$GNGSA,A,3,82,78,,,,,,,,,,,3.59,2.44,2.63*13
$GPGSV,4,1,13,04,04,285,,05,10,044,14,16,44,310,,18,67,091,09*7C
$GPGSV,4,2,13,23,14,133,27,25,06,121,20,26,78,321,13,27,28,265,17*7D
$GPGSV,4,3,13,28,29,189,39,29,26,060,,31,49,215,36,36,36,142,*75
$GPGSV,4,4,13,49,42,167,*40
$GLGSV,2,1,07,72,00,025,,78,38,142,38,79,84,348,,80,28,326,*63
$GLGSV,2,2,07,81,82,324,,82,39,225,32,88,30,035,*55
$GNGLL,4025.00670,N,00340.22633,W,145443.00,A,A*65
$GNRMC,145444.00,A,4025.00675,N,00340.22628,W,0.155,,240224,,,A*77
$GNVTG,,T,,M,0.155,N,0.286,K,A*30
$GNGGA,145444.00,4025.00675,N,00340.22628,W,1,07,2.44,681.0,M,50.2,M,,*55
$GNGSA,A,3,31,28,27,23,25,,,,,,,,3.59,2.44,2.63*1D
$GNGSA,A,3,82,78,,,,,,,,,,,3.59,2.44,2.63*13
$GPGSV,4,1,13,04,04,285,,05,10,044,16,16,44,310,,18,67,091,08*7F
$GPGSV,4,2,13,23,14,133,27,25,06,121,20,26,78,321,13,27,28,265,17*7D
$GPGSV,4,3,13,28,29,189,40,29,26,060,,31,49,215,36,36,36,142,*7B
$GPGSV,4,4,13,49,42,167,*40
$GLGSV,2,1,07,72,00,025,,78,38,142,37,79,84,348,,80,28,326,*6C
$GLGSV,2,2,07,81,82,324,,82,39,225,33,88,30,035,*54
$GNGLL,4025.00675,N,00340.22628,W,145444.00,A,A*6D
$GNRMC,145445.00,A,4025.00709,N,00340.22633,W,0.256,,240224,,,A*76
$GNVTG,,T,,M,0.256,N,0.475,K,A*3A
$GNGGA,145445.00,4025.00709,N,00340.22633,W,1,07,2.44,680.6,M,50.2,M,,*53
$GNGSA,A,3,31,28,27,23,25,,,,,,,,3.59,2.44,2.63*1D
$GNGSA,A,3,82,78,,,,,,,,,,,3.59,2.44,2.63*13
$GPGSV,4,1,13,04,04,285,,05,10,044,16,16,44,310,,18,67,091,09*7E
$GPGSV,4,2,13,23,14,133,27,25,06,121,20,26,78,321,10,27,28,265,17*7E
$GPGSV,4,3,13,28,29,189,39,29,26,060,,31,49,215,36,36,36,142,*75
$GPGSV,4,4,13,49,42,167,*40
$GLGSV,2,1,07,72,00,025,,78,38,142,37,79,84,348,22,80,28,326,*6C
$GLGSV,2,2,07,81,82,324,,82,39,225,32,88,30,035,*55
$GNGLL,4025.00709,N,00340.22633,W,145445.00,A,A*6C
$GNRMC,145446.00,A,4025.00711,N,00340.22631,W,0.153,,240224,,,A*78
$GNVTG,,T,,M,0.153,N,0.283,K,A*33
$GNGGA,145446.00,4025.00711,N,00340.22631,W,1,07,2.44,680.8,M,50.2,M,,*55
$GNGSA,A,3,31,28,27,23,25,,,,,,,,3.59,2.44,2.63*1D
$GNGSA,A,3,82,78,,,,,,,,,,,3.59,2.44,2.63*13
$GPGSV,4,1,13,04,04,285,,05,10,044,16,16,44,310,,18,67,091,08*7F
$GPGSV,4,2,13,23,14,133,28,25,06,121,20,26,78,321,10,27,28,265,17*71
$GPGSV,4,3,13,28,29,189,40,29,26,060,,31,49,215,36,36,36,142,*7B
$GPGSV,4,4,13,49,42,167,*40
$GLGSV,2,1,07,72,00,025,,78,38,142,38,79,84,348,22,80,28,326,*63
$GLGSV,2,2,07,81,82,324,,82,39,225,33,88,30,035,*54
$GNGLL,4025.00711,N,00340.22631,W,145446.00,A,A*64
$GNRMC,145447.00,A,4025.00694,N,00340.22627,W,0.175,,240224,,,A*76
$GNVTG,,T,,M,0.175,N,0.324,K,A*3B
$GNGGA,145447.00,4025.00694,N,00340.22627,W,1,07,2.44,681.4,M,50.2,M,,*52
$GNGSA,A,3,31,28,27,23,25,,,,,,,,3.59,2.44,2.63*1D
$GNGSA,A,3,82,78,,,,,,,,,,,3.59,2.44,2.63*13
$GPGSV,4,1,13,04,04,285,,05,10,044,16,16,44,310,,18,67,091,09*7E
$GPGSV,4,2,13,23,14,133,28,25,06,121,20,26,78,321,13,27,28,265,16*73
$GPGSV,4,3,13,28,29,189,39,29,26,060,,31,49,215,36,36,36,142,*75
$GPGSV,4,4,13,49,42,167,*40
$GLGSV,2,1,07,72,00,025,,78,38,142,38,79,84,348,22,80,28,326,*63
$GLGSV,2,2,07,81,82,324,,82,39,225,33,88,30,035,*54
$GNGLL,4025.00694,N,00340.22627,W,145447.00,A,A*6E
$GNRMC,145448.00,A,4025.00681,N,00340.22628,W,0.239,,240224,,,A*79
$GNVTG,,T,,M,0.239,N,0.442,K,A*37
$GNGGA,145448.00,4025.00681,N,00340.22628,W,1,08,1.55,681.8,M,50.2,M,,*56
$GNGSA,A,3,18,31,28,27,23,25,,,,,,,2.25,1.55,1.63*1E
$GNGSA,A,3,82,78,,,,,,,,,,,2.25,1.55,1.63*19
$GPGSV,4,1,13,04,04,285,,05,10,044,16,16,44,310,,18,67,091,11*77
$GPGSV,4,2,13,23,14,133,28,25,06,121,20,26,78,321,13,27,28,265,17*72
$GPGSV,4,3,13,28,29,189,40,29,26,060,,31,49,215,35,36,36,142,*78
$GPGSV,4,4,13,49,42,167,*40
$GLGSV,2,1,07,72,00,025,,78,38,142,37,79,84,348,22,80,28,326,18*65
$GLGSV,2,2,07,81,82,324,,82,39,225,32,88,30,035,*55
$GNGLL,4025.00681,N,00340.22628,W,145448.00,A,A*6A
$GNRMC,145449.00,A,4025.00701,N,00340.22632,W,0.282,,240224,,,A*7A
$GNVTG,,T,,M,0.282,N,0.523,K,A*31
$GNGGA,145449.00,4025.00701,N,00340.22632,W,1,06,2.53,681.6,M,50.2,M,,*50
$GNGSA,A,3,31,28,27,23,,,,,,,,,3.87,2.53,2.93*10
$GNGSA,A,3,82,78,,,,,,,,,,,3.87,2.53,2.93*19
$GPGSV,4,1,13,04,04,285,,05,10,044,16,16,44,310,,18,67,091,10*76
$GPGSV,4,2,13,23,14,133,28,25,05,121,20,26,78,321,12,27,28,265,18*7F
$GPGSV,4,3,13,28,29,189,40,29,26,060,,31,49,215,35,36,36,142,*78
$GPGSV,4,4,13,49,42,167,*40
$GLGSV,2,1,07,72,00,025,,78,38,142,37,79,84,348,23,80,28,326,18*64
$GLGSV,2,2,07,81,82,324,,82,39,225,32,88,30,035,*55
$GNGLL,4025.00701,N,00340.22632,W,145449.00,A,A*69
$GNRMC,145450.00,A,4025.00714,N,00340.22634,W,0.299,,240224,,,A*7A
$GNVTG,,T,,M,0.299,N,0.553,K,A*3C
$GNGGA,145450.00,4025.00714,N,00340.22634,W,1,07,2.44,681.5,M,50.2,M,,*5E
$GNGSA,A,3,31,28,27,23,25,,,,,,,,3.59,2.44,2.63*1D
$GNGSA,A,3,82,78,,,,,,,,,,,3.59,2.44,2.63*13
$GPGSV,4,1,13,04,04,285,,05,10,044,15,16,44,310,,18,67,091,08*7C
$GPGSV,4,2,13,23,14,133,28,25,05,121,20,26,78,321,10,27,28,265,18*7D
$GPGSV,4,3,13,28,29,189,40,29,26,060,,31,49,215,35,36,36,142,*78
$GPGSV,4,4,13,49,42,167,*40
$GLGSV,2,1,07,72,00,025,,78,38,142,37,79,84,348,23,80,28,326,19*65
$GLGSV,2,2,07,81,82,324,,82,39,225,32,88,30,035,*55
$GNGLL,4025.00714,N,00340.22634,W,145450.00,A,A*63
$GNRMC,145451.00,A,4025.00478,N,00340.22607,W,0.063,,240224,,,A*75
$GNVTG,,T,,M,0.063,N,0.117,K,A*3F
$GNGGA,145451.00,4025.00478,N,00340.22607,W,1,07,1.55,684.7,M,50.2,M,,*52
$GNGSA,A,3,31,28,23,25,,,,,,,,,3.30,1.55,2.91*19
$GNGSA,A,3,82,78,80,,,,,,,,,,3.30,1.55,2.91*1A
$GPGSV,4,1,13,04,04,285,,05,10,044,16,16,44,310,,18,67,091,07*70
$GPGSV,4,2,13,23,14,133,27,25,05,121,20,26,78,321,,27,28,265,18*73
$GPGSV,4,3,13,28,29,189,40,29,26,060,,31,49,215,35,36,36,142,*78
$GPGSV,4,4,13,49,42,167,33*40
$GLGSV,2,1,07,72,00,025,,78,38,142,37,79,84,348,23,80,28,326,19*65
$GLGSV,2,2,07,81,82,324,,82,39,225,32,88,30,035,*55
$GNGLL,4025.00478,N,00340.22607,W,145451.00,A,A*6B
$GNRMC,145452.00,A,4025.00224,N,00340.22579,W,0.263,,240224,,,A*71
$GNVTG,,T,,M,0.263,N,0.488,K,A*3E
$GNGGA,145452.00,4025.00224,N,00340.22579,W,1,07,1.55,687.9,M,50.2,M,,*59
$GNGSA,A,3,31,28,23,25,,,,,,,,,3.30,1.55,2.91*19
$GNGSA,A,3,82,78,80,,,,,,,,,,3.30,1.55,2.91*1A
$GPGSV,4,1,13,04,04,285,,05,10,044,15,16,44,310,17,18,67,091,07*75
$GPGSV,4,2,13,23,14,133,28,25,05,121,19,26,78,321,19,27,28,265,20*75
$GPGSV,4,3,13,28,29,189,40,29,26,060,,31,49,215,35,36,36,142,*78
$GPGSV,4,4,13,49,42,167,33*40
$GLGSV,2,1,07,72,00,025,,78,38,142,37,79,84,348,23,80,28,326,20*6F
$GLGSV,2,2,07,81,82,324,,82,39,225,32,88,30,035,*55
$GNGLL,4025.00224,N,00340.22579,W,145452.00,A,A*6D
$GNRMC,145453.00,A,4025.00040,N,00340.22558,W,0.253,,240224,,,A*70
$GNVTG,,T,,M,0.253,N,0.469,K,A*32
$GNGGA,145453.00,4025.00040,N,00340.22558,W,1,07,1.55,690.3,M,50.2,M,,*57
$GNGSA,A,3,31,28,23,25,,,,,,,,,3.30,1.55,2.91*19
$GNGSA,A,3,82,78,80,,,,,,,,,,3.30,1.55,2.91*1A
$GPGSV,4,1,13,04,04,285,,05,10,044,14,16,44,310,14,18,67,091,06*76
$GPGSV,4,2,13,23,14,133,27,25,05,121,20,26,78,321,17,27,28,265,19*74
$GPGSV,4,3,13,28,29,189,39,29,26,060,,31,49,215,35,36,36,142,*76
$GPGSV,4,4,13,49,42,167,33*40
$GLGSV,2,1,07,72,00,025,,78,38,142,37,79,84,348,23,80,28,326,20*6F
$GLGSV,2,2,07,81,82,324,,82,39,225,32,88,30,035,*55
$GNGLL,4025.00040,N,00340.22558,W,145453.00,A,A*6F
$GNRMC,145454.00,A,4024.99915,N,00340.22544,W,0.038,,240224,,,A*7D
$GNVTG,,T,,M,0.038,N,0.071,K,A*30
$GNGGA,145454.00,4024.99915,N,00340.22544,W,1,07,1.55,692.0,M,50.2,M,,*54
$GNGSA,A,3,31,28,23,25,,,,,,,,,3.30,1.55,2.91*19
$GNGSA,A,3,82,78,80,,,,,,,,,,3.30,1.55,2.91*1A
$GPGSV,4,1,13,04,04,285,,05,10,044,14,16,44,310,12,18,67,091,06*70
$GPGSV,4,2,13,23,14,133,28,25,05,121,20,26,78,321,21,27,28,265,19*7E
$GPGSV,4,3,13,28,29,189,40,29,26,060,,31,49,215,36,36,36,142,*7B
$GPGSV,4,4,13,49,42,167,32*41
$GLGSV,2,1,07,72,00,025,,78,38,142,37,79,84,348,23,80,28,326,19*65
$GLGSV,2,2,07,81,82,324,,82,39,225,33,88,30,035,*54
$GNGLL,4024.99915,N,00340.22544,W,145454.00,A,A*6D
$GNRMC,145455.00,A,4024.99773,N,00340.22527,W,0.257,,240224,,,A*7C
$GNVTG,,T,,M,0.257,N,0.476,K,A*38
$GNGGA,145455.00,4024.99773,N,00340.22527,W,1,07,1.55,693.8,M,50.2,M,,*57
$GNGSA,A,3,31,28,23,25,,,,,,,,,3.30,1.55,2.91*19
$GNGSA,A,3,82,78,80,,,,,,,,,,3.30,1.55,2.91*1A
$GPGSV,4,1,13,04,04,285,,05,10,044,15,16,44,310,10,18,67,091,06*73
$GPGSV,4,2,13,23,14,133,28,25,05,121,20,26,78,321,19,27,28,265,19*75
$GPGSV,4,3,13,28,29,189,40,29,26,060,,31,49,215,36,36,36,142,*7B
$GPGSV,4,4,13,49,42,167,32*41
$GLGSV,2,1,07,72,00,025,,78,38,142,37,79,84,348,22,80,28,326,20*6E
$GLGSV,2,2,07,81,82,324,,82,39,225,32,88,30,035,*55
$GNGLL,4024.99773,N,00340.22527,W,145455.00,A,A*67
$GNRMC,145456.00,A,4024.99679,N,00340.22521,W,0.062,,240224,,,A*76
$GNVTG,,T,,M,0.062,N,0.115,K,A*3C
$GNGGA,145456.00,4024.99679,N,00340.22521,W,1,09,1.01,694.8,M,50.2,M,,*51
$GNGSA,A,3,18,31,28,27,23,25,,,,,,,1.81,1.01,1.50*12
$GNGSA,A,3,82,78,80,,,,,,,,,,1.81,1.01,1.50*1D
$GPGSV,4,1,13,04,04,285,,05,10,044,15,16,44,310,12,18,67,091,10*76
$GPGSV,4,2,13,23,14,133,28,25,05,121,20,26,78,321,,27,28,265,19*7D
$GPGSV,4,3,13,28,29,189,40,29,26,060,,31,49,215,36,36,36,142,*7B
$GPGSV,4,4,13,49,42,167,32*41
$GLGSV,2,1,07,72,00,025,,78,38,142,37,79,84,348,22,80,28,326,20*6E
$GLGSV,2,2,07,81,82,324,,82,39,225,32,88,30,035,*55
$GNGLL,4024.99679,N,00340.22521,W,145456.00,A,A*69
$GNRMC,145457.00,A,4024.99603,N,00340.22522,W,0.056,,240224,,,A*7E
$GNVTG,,T,,M,0.056,N,0.104,K,A*3B
$GNGGA,145457.00,4024.99603,N,00340.22522,W,1,09,1.01,695.3,M,50.2,M,,*54
$GNGSA,A,3,18,31,28,27,23,25,,,,,,,1.81,1.01,1.50*12
$GNGSA,A,3,82,78,80,,,,,,,,,,1.81,1.01,1.50*1D
$GPGSV,4,1,13,04,04,285,,05,10,044,15,16,44,310,14,18,67,091,10*70
$GPGSV,4,2,13,23,14,133,27,25,05,121,20,26,78,321,,27,28,265,19*72
$GPGSV,4,3,13,28,29,189,40,29,26,060,,31,49,215,36,36,36,142,*7B
$GPGSV,4,4,13,49,42,167,32*41
$GLGSV,2,1,07,72,00,025,,78,38,142,37,79,84,348,22,80,28,326,20*6E
$GLGSV,2,2,07,81,82,324,,82,39,225,33,88,30,035,*54
$GNGLL,4024.99603,N,00340.22522,W,145457.00,A,A*66
$GNRMC,145458.00,A,4024.99552,N,00340.22522,W,0.061,,240224,,,A*72
$GNVTG,,T,,M,0.061,N,0.113,K,A*39
$GNGGA,145458.00,4024.99552,N,00340.22522,W,1,09,1.01,695.9,M,50.2,M,,*56
$GNGSA,A,3,18,31,28,27,23,25,,,,,,,1.81,1.01,1.50*12
$GNGSA,A,3,82,78,80,,,,,,,,,,1.81,1.01,1.50*1D
$GPGSV,4,1,13,04,04,285,,05,10,044,15,16,44,310,13,18,67,091,10*77
$GPGSV,4,2,13,23,14,133,27,25,05,121,20,26,78,321,,27,28,265,19*72
$GPGSV,4,3,13,28,29,189,40,29,26,060,,31,49,215,36,36,36,142,*7B
$GPGSV,4,4,13,49,42,167,32*41
$GLGSV,2,1,07,72,00,025,,78,38,142,37,79,84,348,23,80,28,326,19*65
$GLGSV,2,2,07,81,82,324,,82,39,225,33,88,30,035,*54
$GNGLL,4024.99552,N,00340.22522,W,145458.00,A,A*6E
$GNRMC,145459.00,A,4024.99505,N,00340.22520,W,0.076,,240224,,,A*75
$GNVTG,,T,,M,0.076,N,0.141,K,A*38
$GNGGA,145459.00,4024.99505,N,00340.22520,W,1,09,1.01,696.2,M,50.2,M,,*5F
$GNGSA,A,3,18,31,28,27,23,25,,,,,,,1.81,1.01,1.50*12
$GNGSA,A,3,82,78,80,,,,,,,,,,1.81,1.01,1.50*1D
$GPGSV,4,1,13,04,04,285,,05,10,044,15,16,44,310,12,18,67,091,10*76
$GPGSV,4,2,13,23,14,133,27,25,05,121,20,26,78,321,18,27,28,265,20*71
$GPGSV,4,3,13,28,29,189,40,29,26,060,,31,49,215,36,36,36,142,*7B
$GPGSV,4,4,13,49,42,167,32*41
$GLGSV,2,1,07,72,00,025,,78,38,142,37,79,84,348,22,80,28,326,19*64
$GLGSV,2,2,07,81,82,324,,82,39,225,33,88,30,035,*54
$GNGLL,4024.99505,N,00340.22520,W,145459.00,A,A*6F
$GNRMC,145500.00,A,4024.99462,N,00340.22520,W,0.091,,240224,,,A*71
$GNVTG,,T,,M,0.091,N,0.168,K,A*3A
$GNGGA,145500.00,4024.99462,N,00340.22520,W,1,08,1.30,696.7,M,50.2,M,,*54
$GNGSA,A,3,31,28,27,23,25,,,,,,,,2.80,1.30,2.48*11
$GNGSA,A,3,82,78,80,,,,,,,,,,2.80,1.30,2.48*17
$GPGSV,4,1,13,04,04,285,,05,10,044,13,16,44,310,11,18,67,091,10*73
$GPGSV,4,2,13,23,14,133,28,25,05,121,20,26,78,321,,27,28,265,20*77
$GPGSV,4,3,13,28,29,189,39,29,26,060,,31,49,215,36,36,36,142,*75
$GPGSV,4,4,13,49,42,167,32*41
$GLGSV,2,1,07,72,00,025,,78,38,142,37,79,84,348,21,80,28,326,18*66
$GLGSV,2,2,07,81,82,324,,82,39,225,33,88,30,035,*54
$GNGLL,4024.99462,N,00340.22520,W,145500.00,A,A*62
$GNRMC,145501.00,A,4024.99423,N,00340.22520,W,0.022,,240224,,,A*7D
$GNVTG,,T,,M,0.022,N,0.041,K,A*38
$GNGGA,145501.00,4024.99423,N,00340.22520,W,1,08,1.30,697.1,M,50.2,M,,*57
$GNGSA,A,3,31,28,27,23,25,,,,,,,,2.80,1.30,2.48*11
$GNGSA,A,3,82,78,80,,,,,,,,,,2.80,1.30,2.48*17
$GPGSV,4,1,13,04,04,285,,05,10,044,,16,44,310,10,18,67,091,10*70
$GPGSV,4,2,13,23,14,133,28,25,05,121,20,26,78,321,,27,28,265,20*77
$GPGSV,4,3,13,28,29,189,40,29,26,060,,31,49,215,36,36,36,142,*7B
$GPGSV,4,4,13,49,42,167,32*41
$GLGSV,2,1,07,72,00,025,,78,38,142,37,79,84,348,21,80,28,326,19*67
$GLGSV,2,2,07,81,82,324,,82,39,225,33,88,30,035,*54
$GNGLL,4024.99423,N,00340.22520,W,145501.00,A,A*66
$GNRMC,145502.00,A,4024.99390,N,00340.22520,W,0.022,,240224,,,A*71
$GNVTG,,T,,M,0.022,N,0.040,K,A*39
$GNGGA,145502.00,4024.99390,N,00340.22520,W,1,08,1.30,697.4,M,50.2,M,,*5E
$GNGSA,A,3,31,28,27,23,25,,,,,,,,2.80,1.30,2.48*11
$GNGSA,A,3,82,78,80,,,,,,,,,,2.80,1.30,2.48*17
$GPGSV,4,1,13,04,04,285,,05,10,044,,16,44,310,08,18,67,091,10*79
$GPGSV,4,2,13,23,14,133,28,25,05,121,20,26,78,321,,27,28,265,20*77
$GPGSV,4,3,13,28,29,189,40,29,26,060,,31,49,215,36,36,36,142,*7B
$GPGSV,4,4,13,49,42,167,32*41
$GLGSV,2,1,07,72,00,025,,78,38,142,37,79,84,348,21,80,28,326,19*67
$GLGSV,2,2,07,81,82,324,,82,39,225,33,88,30,035,*54
$GNGLL,4024.99390,N,00340.22520,W,145502.00,A,A*6A
$GNRMC,145503.00,A,4024.99376,N,00340.22517,W,0.191,,240224,,,A*75
$GNVTG,,T,,M,0.191,N,0.353,K,A*31
$GNGGA,145503.00,4024.99376,N,00340.22517,W,1,09,1.01,697.9,M,50.2,M,,*5D
$GNGSA,A,3,18,31,28,27,23,25,,,,,,,1.81,1.01,1.50*12
$GNGSA,A,3,82,78,80,,,,,,,,,,1.81,1.01,1.50*1D
$GPGSV,4,1,13,04,04,285,,05,10,044,,16,44,310,08,18,67,091,10*79
$GPGSV,4,2,13,23,14,133,28,25,05,121,21,26,78,321,,27,28,265,21*77
$GPGSV,4,3,13,28,29,189,40,29,26,060,,31,49,215,36,36,36,142,*7B
$GPGSV,4,4,13,49,42,167,33*40
$GLGSV,2,1,07,72,00,025,,78,38,142,37,79,84,348,22,80,28,326,19*64
$GLGSV,2,2,07,81,82,324,,82,39,225,33,88,30,035,*54
$GNGLL,4024.99376,N,00340.22517,W,145503.00,A,A*67
$GNRMC,145504.00,A,4024.99380,N,00340.22526,W,0.473,,240224,,,A*70
$GNVTG,,T,,M,0.473,N,0.876,K,A*34
$GNGGA,145504.00,4024.99380,N,00340.22526,W,1,09,1.01,697.6,M,50.2,M,,*5E
$GNGSA,A,3,18,31,28,27,23,25,,,,,,,1.81,1.01,1.50*12
$GNGSA,A,3,82,78,80,,,,,,,,,,1.81,1.01,1.50*1D
$GPGSV,4,1,13,04,04,285,,05,10,044,,16,44,310,,18,67,091,10*71
$GPGSV,4,2,13,23,14,133,27,25,05,121,21,26,78,321,,27,28,265,21*78
$GPGSV,4,3,13,28,29,189,40,29,26,060,,31,49,215,36,36,36,142,*7B
$GPGSV,4,4,13,49,42,167,32*41
$GLGSV,2,1,07,72,00,025,,78,38,142,36,79,84,348,22,80,28,326,19*65
$GLGSV,2,2,07,81,82,324,,82,39,225,33,88,30,035,*54
$GNGLL,4024.99380,N,00340.22526,W,145504.00,A,A*6B
$GNRMC,145505.00,A,4024.99355,N,00340.22529,W,0.285,,240224,,,A*79
$GNVTG,,T,,M,0.285,N,0.528,K,A*3D
$GNGGA,145505.00,4024.99355,N,00340.22529,W,1,09,1.01,697.7,M,50.2,M,,*59
$GNGSA,A,3,18,31,28,27,23,25,,,,,,,1.81,1.01,1.50*12
$GNGSA,A,3,82,78,80,,,,,,,,,,1.81,1.01,1.50*1D
$GPGSV,4,1,13,04,04,285,,05,10,044,,16,44,310,,18,67,091,10*71
$GPGSV,4,2,13,23,14,133,27,25,05,121,21,26,78,321,23,27,28,265,21*79
$GPGSV,4,3,13,28,29,189,40,29,26,060,,31,49,215,36,36,36,142,*7B
$GPGSV,4,4,13,49,42,167,33*40
$GLGSV,2,1,07,72,00,025,,78,38,142,36,79,84,348,22,80,28,326,19*65
$GLGSV,2,2,07,81,82,324,,82,39,225,33,88,30,035,*54
$GNGLL,4024.99355,N,00340.22529,W,145505.00,A,A*6D
$GNRMC,145506.00,A,4024.99323,N,00340.22528,W,0.150,,240224,,,A*71
$GNVTG,,T,,M,0.150,N,0.279,K,A*35
$GNGGA,145506.00,4024.99323,N,00340.22528,W,1,08,1.31,698.0,M,50.2,M,,*50
$GNGSA,A,3,31,28,27,23,25,,,,,,,,2.80,1.31,2.48*10
$GNGSA,A,3,82,78,80,,,,,,,,,,2.80,1.31,2.48*16
$GPGSV,4,1,13,04,04,285,,05,10,044,,16,44,310,,18,67,091,*70
$GPGSV,4,2,13,23,14,133,27,25,05,121,20,26,78,321,20,27,28,265,22*78
$GPGSV,4,3,13,28,29,189,40,29,26,060,,31,49,215,36,36,36,142,*7B
$GPGSV,4,4,13,49,42,167,32*41
$GLGSV,2,1,07,72,00,025,,78,38,142,36,79,84,348,22,80,28,326,17*6B
$GLGSV,2,2,07,81,82,324,,82,39,225,33,88,30,035,*54
$GNGLL,4024.99323,N,00340.22528,W,145506.00,A,A*6E
$GNRMC,145507.00,A,4024.99318,N,00340.22529,W,0.078,,240224,,,A*72
$GNVTG,,T,,M,0.078,N,0.144,K,A*33
$GNGGA,145507.00,4024.99318,N,00340.22529,W,1,08,1.31,697.9,M,50.2,M,,*5E
$GNGSA,A,3,31,28,27,23,25,,,,,,,,2.80,1.31,2.48*10
$GNGSA,A,3,82,78,80,,,,,,,,,,2.80,1.31,2.48*16
$GPGSV,4,1,13,04,04,285,,05,10,044,,16,44,310,,18,67,091,*70
$GPGSV,4,2,13,23,14,133,27,25,05,121,20,26,78,321,19,27,28,265,22*72
$GPGSV,4,3,13,28,29,189,40,29,26,060,,31,49,215,36,36,36,142,*7B
$GPGSV,4,4,13,49,42,167,32*41
$GLGSV,2,1,07,72,00,025,,78,38,142,36,79,84,348,21,80,28,326,17*68
$GLGSV,2,2,07,81,82,324,,82,39,225,33,88,30,035,*54
$GNGLL,4024.99318,N,00340.22529,W,145507.00,A,A*66
$GNRMC,145508.00,A,4024.99322,N,00340.22532,W,0.046,,240224,,,A*73
$GNVTG,,T,,M,0.046,N,0.085,K,A*32
$GNGGA,145508.00,4024.99322,N,00340.22532,W,1,08,1.31,697.9,M,50.2,M,,*52
$GNGSA,A,3,31,28,27,23,25,,,,,,,,2.80,1.31,2.48*10
$GNGSA,A,3,82,78,80,,,,,,,,,,2.80,1.31,2.48*16
$GPGSV,4,1,13,04,04,285,,05,10,044,,16,44,310,,18,67,091,*70
$GPGSV,4,2,13,23,14,133,27,25,05,121,19,26,78,321,,27,28,265,22*70
$GPGSV,4,3,13,28,29,189,40,29,26,060,,31,49,215,36,36,36,142,*7B
$GPGSV,4,4,13,49,42,167,32*41
$GLGSV,2,1,07,72,00,025,,78,38,142,36,79,84,348,21,80,28,326,16*69
$GLGSV,2,2,07,81,82,324,,82,39,225,34,88,30,035,*53
$GNGLL,4024.99322,N,00340.22532,W,145508.00,A,A*6A
$GNRMC,145509.00,A,4024.99327,N,00340.22537,W,0.039,,240224,,,A*7A
$GNVTG,,T,,M,0.039,N,0.072,K,A*32
$GNGGA,145509.00,4024.99327,N,00340.22537,W,1,08,1.31,697.7,M,50.2,M,,*5D
$GNGSA,A,3,31,28,27,23,25,,,,,,,,2.80,1.31,2.48*10
$GNGSA,A,3,82,78,80,,,,,,,,,,2.80,1.31,2.48*16
$GPGSV,4,1,13,04,04,285,,05,10,044,,16,44,310,17,18,67,091,*76
$GPGSV,4,2,13,23,14,133,27,25,05,121,20,26,78,321,,27,28,265,23*7B
$GPGSV,4,3,13,28,29,189,40,29,26,060,,31,49,215,36,36,36,142,*7B
$GPGSV,4,4,13,49,42,167,32*41
$GLGSV,2,1,07,72,00,025,,78,38,142,36,79,84,348,21,80,28,326,15*6A
$GLGSV,2,2,07,81,82,324,,82,39,225,34,88,30,035,*53
$GNGLL,4024.99327,N,00340.22537,W,145509.00,A,A*6B
$GNRMC,145510.00,A,4024.99336,N,00340.22540,W,0.247,,240224,,,A*79
$GNVTG,,T,,M,0.247,N,0.457,K,A*3A
$GNGGA,145510.00,4024.99336,N,00340.22540,W,1,08,1.31,697.4,M,50.2,M,,*56
$GNGSA,A,3,31,28,27,23,25,,,,,,,,2.80,1.31,2.48*10
$GNGSA,A,3,82,78,80,,,,,,,,,,2.80,1.31,2.48*16
$GPGSV,4,1,13,04,04,285,,05,10,044,,16,44,310,16,18,67,091,*77
$GPGSV,4,2,13,23,14,133,27,25,05,121,20,26,78,321,20,27,28,265,23*79
$GPGSV,4,3,13,28,29,189,40,29,26,060,,31,49,215,36,36,36,142,*7B
$GPGSV,4,4,13,49,42,167,32*41
$GLGSV,2,1,07,72,00,025,,78,38,142,36,79,84,348,21,80,28,326,16*69
$GLGSV,2,2,07,81,82,324,,82,39,225,34,88,30,035,*53
$GNGLL,4024.99336,N,00340.22540,W,145510.00,A,A*63
$GNRMC,145511.00,A,4024.99327,N,00340.22540,W,0.255,,240224,,,A*7B
$GNVTG,,T,,M,0.255,N,0.473,K,A*3F
$GNGGA,145511.00,4024.99327,N,00340.22540,W,1,08,1.31,697.4,M,50.2,M,,*57
$GNGSA,A,3,31,28,27,23,25,,,,,,,,2.81,1.31,2.48*11
$GNGSA,A,3,82,78,80,,,,,,,,,,2.81,1.31,2.48*17
$GPGSV,4,1,13,04,04,285,,05,10,044,,16,44,310,16,18,67,091,*77
$GPGSV,4,2,13,23,14,133,27,25,05,121,20,26,78,321,19,27,28,265,24*74
$GPGSV,4,3,13,28,29,189,40,29,26,060,,31,49,215,36,36,36,142,*7B
$GPGSV,4,4,13,49,42,167,32*41
$GLGSV,2,1,07,72,00,025,,78,38,142,36,79,84,348,20,80,28,326,16*68
$GLGSV,2,2,07,81,82,324,,82,39,225,34,88,30,035,*53
$GNGLL,4024.99327,N,00340.22540,W,145511.00,A,A*62
$GNRMC,145512.00,A,4024.99321,N,00340.22541,W,0.473,,240224,,,A*7D
$GNVTG,,T,,M,0.473,N,0.875,K,A*37
$GNGGA,145512.00,4024.99321,N,00340.22541,W,1,08,1.31,697.3,M,50.2,M,,*54
$GNGSA,A,3,31,28,27,23,25,,,,,,,,2.81,1.31,2.48*11
$GNGSA,A,3,82,78,80,,,,,,,,,,2.81,1.31,2.48*17
$GPGSV,4,1,13,04,04,285,,05,10,044,,16,44,310,16,18,67,091,*77
$GPGSV,4,2,13,23,14,133,27,25,05,121,20,26,78,321,19,27,28,265,25*75
$GPGSV,4,3,13,28,29,189,40,29,26,060,18,31,49,215,36,36,36,142,*72
$GPGSV,4,4,13,49,42,167,32*41
$GLGSV,2,1,07,72,00,025,,78,38,142,36,79,84,348,21,80,28,326,16*69
$GLGSV,2,2,07,81,82,324,,82,39,225,34,88,30,035,*53
$GNGLL,4024.99321,N,00340.22541,W,145512.00,A,A*66
$GNRMC,145513.00,A,4024.99329,N,00340.22540,W,0.267,,240224,,,A*76
$GNVTG,,T,,M,0.267,N,0.495,K,A*36
$GNGGA,145513.00,4024.99329,N,00340.22540,W,1,08,1.31,697.2,M,50.2,M,,*5D
$GNGSA,A,3,31,28,27,23,25,,,,,,,,2.81,1.31,2.48*11
$GNGSA,A,3,82,78,80,,,,,,,,,,2.81,1.31,2.48*17
$GPGSV,4,1,13,04,04,285,,05,10,044,,16,44,310,15,18,67,091,16*73
$GPGSV,4,2,13,23,14,133,27,25,05,121,20,26,78,321,18,27,28,265,25*74
$GPGSV,4,3,13,28,29,189,40,29,26,060,18,31,49,215,36,36,36,142,*72
$GPGSV,4,4,13,49,42,167,32*41
$GLGSV,2,1,07,72,00,025,,78,38,142,36,79,84,348,21,80,28,326,15*6A
$GLGSV,2,2,07,81,82,324,,82,39,225,34,88,30,035,*53
$GNGLL,4024.99329,N,00340.22540,W,145513.00,A,A*6E
$GNRMC,145514.00,A,4024.99331,N,00340.22539,W,0.105,,240224,,,A*71
$GNVTG,,T,,M,0.105,N,0.194,K,A*35
$GNGGA,145514.00,4024.99331,N,00340.22539,W,1,08,1.31,697.1,M,50.2,M,,*5E
$GNGSA,A,3,31,28,27,23,25,,,,,,,,2.81,1.31,2.48*11
$GNGSA,A,3,82,78,80,,,,,,,,,,2.81,1.31,2.48*17
$GPGSV,4,1,13,04,04,285,,05,10,044,19,16,44,310,14,18,67,091,16*7A
$GPGSV,4,2,13,23,14,133,27,25,05,121,20,26,78,321,20,27,28,265,25*7F
$GPGSV,4,3,13,28,29,189,40,29,26,060,18,31,49,215,36,36,36,142,*72
$GPGSV,4,4,13,49,42,167,32*41
$GLGSV,2,1,07,72,00,025,,78,38,142,36,79,84,348,20,80,28,326,15*6B
$GLGSV,2,2,07,81,82,324,,82,39,225,34,88,30,035,*53
$GNGLL,4024.99331,N,00340.22539,W,145514.00,A,A*6E
$GNRMC,145515.00,A,4024.99328,N,00340.22538,W,0.122,,240224,,,A*7C
$GNVTG,,T,,M,0.122,N,0.226,K,A*3A
$GNGGA,145515.00,4024.99328,N,00340.22538,W,1,08,1.31,697.1,M,50.2,M,,*56
$GNGSA,A,3,31,28,27,23,25,,,,,,,,2.81,1.31,2.49*10
$GNGSA,A,3,82,78,80,,,,,,,,,,2.81,1.31,2.49*16
$GPGSV,4,1,13,04,04,285,,05,10,044,18,16,44,310,15,18,67,091,16*7A
$GPGSV,4,2,13,23,14,133,27,25,05,121,20,26,78,321,,27,28,265,26*7E
$GPGSV,4,3,13,28,29,189,40,29,26,060,17,31,49,215,36,36,36,142,*7D
$GPGSV,4,4,13,49,42,167,32*41
$GLGSV,2,1,07,72,00,025,,78,38,142,36,79,84,348,20,80,28,326,15*6B
$GLGSV,2,2,07,81,82,324,,82,39,225,34,88,30,035,*53
$GNGLL,4024.99328,N,00340.22538,W,145515.00,A,A*66
$GNRMC,145516.00,A,4024.99316,N,00340.22536,W,0.080,,240224,,,A*75
$GNVTG,,T,,M,0.080,N,0.148,K,A*38
$GNGGA,145516.00,4024.99316,N,00340.22536,W,1,08,1.31,697.3,M,50.2,M,,*54
$GNGSA,A,3,31,28,27,23,25,,,,,,,,2.81,1.31,2.49*10
$GNGSA,A,3,82,78,80,,,,,,,,,,2.81,1.31,2.49*16
$GPGSV,4,1,13,04,04,285,,05,10,044,18,16,44,310,15,18,67,091,15*79
$GPGSV,4,2,13,23,14,133,27,25,05,121,21,26,78,321,,27,28,265,26*7F
$GPGSV,4,3,13,28,29,189,40,29,26,060,17,31,49,215,36,36,36,142,*7D
$GPGSV,4,4,13,49,42,167,32*41
$GLGSV,2,1,07,72,00,025,,78,38,142,36,79,84,348,21,80,28,326,14*6B
$GLGSV,2,2,07,81,82,324,,82,39,225,34,88,30,035,*53
$GNGLL,4024.99316,N,00340.22536,W,145516.00,A,A*66
$GNRMC,145517.00,A,4024.99321,N,00340.22539,W,0.133,,240224,,,A*76
$GNVTG,,T,,M,0.133,N,0.246,K,A*3C
$GNGGA,145517.00,4024.99321,N,00340.22539,W,1,09,1.54,697.1,M,50.2,M,,*5E
$GNGSA,A,3,18,31,28,27,23,25,,,,,,,2.25,1.54,1.63*1F
$GNGSA,A,3,82,78,80,,,,,,,,,,2.25,1.54,1.63*10
$GPGSV,4,1,13,04,04,285,,05,10,044,17,16,44,310,15,18,67,091,14*77
$GPGSV,4,2,13,23,14,133,27,25,05,121,20,26,78,321,,27,28,265,26*7E
$GPGSV,4,3,13,28,29,189,40,29,26,060,18,31,49,215,37,36,36,142,*73
$GPGSV,4,4,13,49,42,167,32*41
$GLGSV,2,1,07,72,00,025,,78,38,142,36,79,84,348,22,80,28,326,14*68
$GLGSV,2,2,07,81,82,324,,82,39,225,34,88,30,035,*53
$GNGLL,4024.99321,N,00340.22539,W,145517.00,A,A*6C
$GNRMC,145518.00,A,4024.99330,N,00340.22544,W,0.029,,240224,,,A*79
$GNVTG,,T,,M,0.029,N,0.053,K,A*30
$GNGGA,145518.00,4024.99330,N,00340.22544,W,1,09,1.54,696.7,M,50.2,M,,*5C
$GNGSA,A,3,18,31,28,27,23,25,,,,,,,2.25,1.54,1.63*1F
$GNGSA,A,3,82,78,80,,,,,,,,,,2.25,1.54,1.63*10
$GPGSV,4,1,13,04,04,285,,05,10,044,17,16,44,310,17,18,67,091,15*74
$GPGSV,4,2,13,23,14,133,27,25,05,121,20,26,78,321,,27,28,265,26*7E
$GPGSV,4,3,13,28,29,189,40,29,26,060,18,31,49,215,36,36,36,142,*72
$GPGSV,4,4,13,49,42,167,32*41
$GLGSV,2,1,07,72,00,025,,78,38,142,36,79,84,348,21,80,28,326,15*6A
$GLGSV,2,2,07,81,82,324,,82,39,225,34,88,30,035,*53
$GNGLL,4024.99330,N,00340.22544,W,145518.00,A,A*69
$GNRMC,145519.00,A,4024.99335,N,00340.22548,W,0.074,,240224,,,A*79
$GNVTG,,T,,M,0.074,N,0.136,K,A*3A
$GNGGA,145519.00,4024.99335,N,00340.22548,W,1,09,1.54,696.5,M,50.2,M,,*56
$GNGSA,A,3,18,31,28,27,23,25,,,,,,,2.25,1.54,1.63*1F
$GNGSA,A,3,82,78,80,,,,,,,,,,2.25,1.54,1.63*10
$GPGSV,4,1,13,04,04,285,,05,10,044,17,16,44,310,16,18,67,091,15*75
$GPGSV,4,2,13,23,14,133,27,25,05,121,20,26,78,321,20,27,28,265,27*7D
$GPGSV,4,3,13,28,29,189,40,29,26,060,18,31,49,215,37,36,36,142,*73
$GPGSV,4,4,13,49,42,167,32*41
$GLGSV,2,1,07,72,00,025,,78,38,142,36,79,84,348,20,80,28,326,15*6B
$GLGSV,2,2,07,81,82,324,,82,39,225,34,88,30,035,*53
$GNGLL,4024.99335,N,00340.22548,W,145519.00,A,A*61
$GNRMC,145520.00,A,4024.99344,N,00340.22554,W,0.042,,240224,,,A*7D
$GNVTG,,T,,M,0.042,N,0.077,K,A*3B
$GNGGA,145520.00,4024.99344,N,00340.22554,W,1,09,1.54,696.3,M,50.2,M,,*51
$GNGSA,A,3,18,31,28,27,23,25,,,,,,,2.25,1.54,1.63*1F
$GNGSA,A,3,82,78,80,,,,,,,,,,2.25,1.54,1.63*10
$GPGSV,4,1,13,04,04,285,,05,10,044,17,16,44,310,16,18,67,091,15*75
$GPGSV,4,2,13,23,14,133,27,25,05,121,20,26,78,321,,27,28,265,27*7F
$GPGSV,4,3,13,28,29,189,40,29,26,060,18,31,49,215,37,36,36,142,*73
$GPGSV,4,4,13,49,42,167,32*41
$GLGSV,2,1,07,72,00,024,,78,38,142,36,79,84,348,19,80,28,326,15*60
$GLGSV,2,2,07,81,82,324,,82,39,225,33,88,30,035,*54
$GNGLL,4024.99344,N,00340.22554,W,145520.00,A,A*60
$GNRMC,145521.00,A,4024.99348,N,00340.22558,W,0.062,,240224,,,A*7E
$GNVTG,,T,,M,0.062,N,0.114,K,A*3D
$GNGGA,145521.00,4024.99348,N,00340.22558,W,1,09,1.54,696.1,M,50.2,M,,*52
$GNGSA,A,3,18,31,28,27,23,25,,,,,,,2.25,1.54,1.63*1F
$GNGSA,A,3,82,78,80,,,,,,,,,,2.25,1.54,1.63*10
$GPGSV,4,1,13,04,04,285,,05,10,044,17,16,44,310,15,18,67,091,14*77
$GPGSV,4,2,13,23,14,133,27,25,05,121,21,26,78,321,,27,28,265,27*7E
$GPGSV,4,3,13,28,29,189,40,29,26,060,17,31,49,215,37,36,36,142,*7C
$GPGSV,4,4,13,49,42,167,32*41
$GLGSV,2,1,07,72,00,024,,78,38,142,36,79,84,348,19,80,28,326,13*66
$GLGSV,2,2,07,81,82,324,,82,39,225,33,88,30,035,*54
$GNGLL,4024.99348,N,00340.22558,W,145521.00,A,A*61
$GNRMC,145522.00,A,4024.99354,N,00340.22559,W,0.119,,240224,,,A*7C
$GNVTG,,T,,M,0.119,N,0.220,K,A*34
$GNGGA,145522.00,4024.99354,N,00340.22559,W,1,09,1.54,695.9,M,50.2,M,,*56
$GNGSA,A,3,18,31,28,27,23,25,,,,,,,2.25,1.54,1.63*1F
$GNGSA,A,3,82,78,80,,,,,,,,,,2.25,1.54,1.63*10
$GPGSV,4,1,13,04,04,285,,05,10,044,18,16,44,310,15,18,67,091,14*78
$GPGSV,4,2,13,23,14,133,27,25,05,121,20,26,78,321,20,27,28,265,27*7D
$GPGSV,4,3,13,28,29,189,40,29,26,060,17,31,49,215,36,36,36,142,*7D
$GPGSV,4,4,13,49,42,167,32*41
$GLGSV,2,1,07,72,00,024,,78,38,142,36,79,84,348,19,80,28,326,12*67
$GLGSV,2,2,07,81,82,324,,82,39,225,33,88,30,035,*54
$GNGLL,4024.99354,N,00340.22559,W,145522.00,A,A*6E
$GNRMC,145523.00,A,4024.99356,N,00340.22559,W,0.221,,240224,,,A*77
$GNVTG,,T,,M,0.221,N,0.409,K,A*31
$GNGGA,145523.00,4024.99356,N,00340.22559,W,1,09,1.54,695.7,M,50.2,M,,*5B
$GNGSA,A,3,18,31,28,27,23,25,,,,,,,2.25,1.54,1.63*1F
$GNGSA,A,3,82,78,80,,,,,,,,,,2.25,1.54,1.63*10
$GPGSV,4,1,13,04,04,285,,05,10,044,18,16,44,310,15,18,67,091,15*79
$GPGSV,4,2,13,23,14,133,26,25,05,121,21,26,78,321,,27,28,265,26*7E
$GPGSV,4,3,13,28,29,189,40,29,26,060,17,31,49,215,37,36,36,142,*7C
$GPGSV,4,4,13,49,42,167,32*41
$GLGSV,2,1,07,72,00,024,,78,38,142,36,79,84,348,20,80,28,326,11*6E
$GLGSV,2,2,07,81,82,324,,82,39,225,34,88,30,035,*53
$GNGLL,4024.99356,N,00340.22559,W,145523.00,A,A*6D
$GNRMC,145524.00,A,4024.99361,N,00340.22561,W,0.078,,240224,,,A*71
$GNVTG,,T,,M,0.078,N,0.145,K,A*32
$GNGGA,145524.00,4024.99361,N,00340.22561,W,1,09,1.01,695.5,M,50.2,M,,*51
$GNGSA,A,3,18,31,28,27,23,25,,,,,,,1.81,1.01,1.51*13
$GNGSA,A,3,82,78,80,,,,,,,,,,1.81,1.01,1.51*1C
$GPGSV,4,1,13,04,04,285,,05,10,044,16,16,44,310,15,18,67,091,15*77
$GPGSV,4,2,13,23,14,133,27,25,05,121,20,26,78,321,,27,28,265,26*7E
$GPGSV,4,3,13,28,29,189,40,29,26,060,16,31,49,215,37,36,36,142,*7D
$GPGSV,4,4,13,49,42,167,32*41
$GLGSV,2,1,07,72,00,024,,78,38,142,36,79,84,348,21,80,28,326,12*6C
$GLGSV,2,2,07,81,82,324,,82,39,225,33,88,30,035,*54
$GNGLL,4024.99361,N,00340.22561,W,145524.00,A,A*65
$GNRMC,145525.00,A,4024.99366,N,00340.22563,W,0.067,,240224,,,A*7B
$GNVTG,,T,,M,0.067,N,0.125,K,A*3A
$GNGGA,145525.00,4024.99366,N,00340.22563,W,1,09,1.01,695.2,M,50.2,M,,*52
$GNGSA,A,3,18,31,28,27,23,25,,,,,,,1.81,1.01,1.51*13
$GNGSA,A,3,82,78,80,,,,,,,,,,1.81,1.01,1.51*1C
$GPGSV,4,1,13,04,04,285,,05,10,044,16,16,44,310,15,18,67,091,15*77
$GPGSV,4,2,13,23,14,133,27,25,05,121,20,26,78,321,,27,28,265,27*7F
$GPGSV,4,3,13,28,29,189,40,29,26,060,14,31,49,215,37,36,36,142,*7F
$GPGSV,4,4,13,49,42,167,32*41
$GLGSV,2,1,07,72,00,024,,78,38,142,36,79,84,348,21,80,28,326,11*6F
$GLGSV,2,2,07,81,82,324,,82,39,225,33,88,30,035,*54
$GNGLL,4024.99366,N,00340.22563,W,145525.00,A,A*61
$GNRMC,145526.00,A,4024.99362,N,00340.22563,W,0.060,,240224,,,A*7B
$GNVTG,,T,,M,0.060,N,0.112,K,A*39
$GNGGA,145526.00,4024.99362,N,00340.22563,W,1,09,1.01,695.2,M,50.2,M,,*55
$GNGSA,A,3,18,31,28,27,23,25,,,,,,,1.81,1.01,1.51*13
$GNGSA,A,3,82,78,80,,,,,,,,,,1.81,1.01,1.51*1C
$GPGSV,4,1,13,04,04,285,,05,10,044,15,16,44,310,15,18,67,091,16*77
$GPGSV,4,2,13,23,14,133,27,25,05,121,20,26,78,321,,27,28,265,27*7F
$GPGSV,4,3,13,28,29,189,40,29,26,060,14,31,49,215,37,36,36,142,*7F
$GPGSV,4,4,13,49,42,167,32*41
$GLGSV,2,1,07,72,00,024,,78,38,142,36,79,84,348,21,80,28,326,11*6F
$GLGSV,2,2,07,81,82,324,,82,39,225,33,88,30,035,*54
$GNGLL,4024.99362,N,00340.22563,W,145526.00,A,A*66
$GNRMC,145527.00,A,4024.99364,N,00340.22566,W,0.127,,240224,,,A*7B
$GNVTG,,T,,M,0.127,N,0.235,K,A*3D
$GNGGA,145527.00,4024.99364,N,00340.22566,W,1,09,1.01,694.9,M,50.2,M,,*5D
$GNGSA,A,3,18,31,28,27,23,25,,,,,,,1.81,1.01,1.51*13
$GNGSA,A,3,82,78,80,,,,,,,,,,1.81,1.01,1.51*1C
$GPGSV,4,1,13,04,04,285,,05,10,044,15,16,44,310,14,18,67,091,16*76
$GPGSV,4,2,13,23,14,133,27,25,05,121,19,26,78,321,,27,28,265,27*75
$GPGSV,4,3,13,28,29,189,40,29,26,060,12,31,49,215,37,36,36,142,*79
$GPGSV,4,4,13,49,42,167,32*41
$GLGSV,2,1,07,72,00,024,,78,38,142,36,79,85,349,22,80,28,326,11*6C
$GLGSV,2,2,07,81,82,324,,82,39,225,33,88,30,035,*54
$GNGLL,4024.99364,N,00340.22566,W,145527.00,A,A*64
$GNRMC,145528.00,A,4024.99360,N,00340.22575,W,0.171,,240224,,,A*71
$GNVTG,,T,,M,0.171,N,0.316,K,A*3E
$GNGGA,145528.00,4024.99360,N,00340.22575,W,1,09,1.01,694.4,M,50.2,M,,*59
$GNGSA,A,3,18,31,28,27,23,25,,,,,,,1.81,1.01,1.51*13
$GNGSA,A,3,82,78,80,,,,,,,,,,1.81,1.01,1.51*1C
$GPGSV,4,1,13,04,04,285,,05,10,044,13,16,44,310,15,18,67,091,16*71
$GPGSV,4,2,13,23,14,133,26,25,05,121,19,26,78,321,,27,28,265,26*75
$GPGSV,4,3,13,28,29,189,40,29,26,060,13,31,49,215,37,36,36,142,*78
$GPGSV,4,4,13,49,42,167,32*41
$GLGSV,2,1,07,72,00,024,,78,38,142,37,79,85,349,21,80,28,326,11*6E
$GLGSV,2,2,07,81,82,324,,82,39,225,33,88,30,035,*54
$GNGLL,4024.99360,N,00340.22575,W,145528.00,A,A*6D
$GNRMC,145529.00,A,4024.99359,N,00340.22576,W,0.247,,240224,,,A*7F
$GNVTG,,T,,M,0.247,N,0.458,K,A*35
$GNGGA,145529.00,4024.99359,N,00340.22576,W,1,09,1.01,694.2,M,50.2,M,,*57
$GNGSA,A,3,18,31,28,27,23,25,,,,,,,1.82,1.01,1.51*10
$GNGSA,A,3,82,78,80,,,,,,,,,,1.82,1.01,1.51*1F
$GPGSV,4,1,13,04,04,285,,05,10,044,10,16,44,310,16,18,67,091,15*72
$GPGSV,4,2,13,23,14,133,27,25,05,121,19,26,78,321,,27,28,265,26*74
$GPGSV,4,3,13,28,29,189,40,29,26,060,,31,49,215,37,36,36,142,*7A
$GPGSV,4,4,13,49,42,167,32*41
$GLGSV,2,1,07,72,00,024,,78,38,142,37,79,85,349,21,80,28,326,12*6D
$GLGSV,2,2,07,81,82,328,,82,39,225,33,88,30,035,*58
$GNGLL,4024.99359,N,00340.22576,W,145529.00,A,A*65
$GNRMC,145530.00,A,4024.99360,N,00340.22579,W,0.306,,240224,,,A*76
$GNVTG,,T,,M,0.306,N,0.567,K,A*3C
$GNGGA,145530.00,4024.99360,N,00340.22579,W,1,09,1.01,693.9,M,50.2,M,,*56
$GNGSA,A,3,18,31,28,27,23,25,,,,,,,1.82,1.01,1.51*10
$GNGSA,A,3,82,78,80,,,,,,,,,,1.82,1.01,1.51*1F
$GPGSV,4,1,13,04,04,285,,05,10,044,,16,44,310,17,18,67,091,14*73
$GPGSV,4,2,13,23,14,133,26,25,05,121,20,26,78,321,,27,28,265,26*7F
$GPGSV,4,3,13,28,29,189,40,29,26,060,,31,49,215,37,36,36,142,*7A
$GPGSV,4,4,13,49,42,167,32*41
$GLGSV,2,1,07,72,00,024,,78,38,142,37,79,85,349,21,80,28,326,12*6D
$GLGSV,2,2,07,81,82,328,,82,39,226,33,88,30,035,*5B
$GNGLL,4024.99360,N,00340.22579,W,145530.00,A,A*68
$GNRMC,145531.00,A,4024.99353,N,00340.22583,W,0.254,,240224,,,A*74
$GNVTG,,T,,M,0.254,N,0.471,K,A*3C
$GNGGA,145531.00,4024.99353,N,00340.22583,W,1,09,1.01,693.8,M,50.2,M,,*53
$GNGSA,A,3,18,31,28,27,23,25,,,,,,,1.82,1.01,1.51*10
$GNGSA,A,3,82,78,80,,,,,,,,,,1.82,1.01,1.51*1F
$GPGSV,4,1,13,04,04,285,,05,10,044,,16,44,310,17,18,67,091,15*72
$GPGSV,4,2,13,23,14,133,26,25,05,121,20,26,78,321,,27,28,265,26*7F
$GPGSV,4,3,13,28,29,189,40,29,26,060,,31,49,215,37,36,36,142,*7A
$GPGSV,4,4,13,49,42,167,32*41
$GLGSV,2,1,07,72,00,024,,78,38,142,37,79,85,349,22,80,28,326,10*6C
$GLGSV,2,2,07,81,82,328,,82,39,226,33,88,30,035,*5B
$GNGLL,4024.99353,N,00340.22583,W,145531.00,A,A*6C
$GNRMC,145532.00,A,4024.99366,N,00340.22582,W,0.141,,240224,,,A*77
$GNVTG,,T,,M,0.141,N,0.262,K,A*3F
$GNGGA,145532.00,4024.99366,N,00340.22582,W,1,09,1.31,693.7,M,50.2,M,,*5B
$GNGSA,A,3,18,31,28,27,23,25,,,,,,,2.82,1.31,2.50*12
$GNGSA,A,3,82,78,80,,,,,,,,,,2.82,1.31,2.50*1D
$GPGSV,4,1,13,04,04,285,,05,10,044,,16,44,310,18,18,67,091,14*7C
$GPGSV,4,2,13,23,14,133,26,25,05,121,19,26,78,321,,27,28,265,25*76
$GPGSV,4,3,13,28,29,189,40,29,26,060,,31,49,215,37,36,36,142,*7A
$GPGSV,4,4,13,49,42,167,32*41
$GLGSV,2,1,07,72,00,024,,78,38,142,37,79,85,349,22,80,28,326,10*6C
$GLGSV,2,2,07,81,82,328,,82,39,226,33,88,30,035,*5B
$GNGLL,4024.99366,N,00340.22582,W,145532.00,A,A*68
$GNRMC,145533.00,A,4024.99366,N,00340.22588,W,0.081,,240224,,,A*71
$GNVTG,,T,,M,0.081,N,0.150,K,A*30
$GNGGA,145533.00,4024.99366,N,00340.22588,W,1,09,1.01,693.4,M,50.2,M,,*50
$GNGSA,A,3,18,31,28,27,23,25,,,,,,,1.82,1.01,1.51*10
$GNGSA,A,3,82,78,80,,,,,,,,,,1.82,1.01,1.51*1F
$GPGSV,4,1,13,04,04,285,,05,10,044,,16,44,310,18,18,67,091,13*7B
$GPGSV,4,2,13,23,14,133,26,25,05,121,19,26,78,321,,27,28,265,25*76
$GPGSV,4,3,13,28,29,189,40,29,26,060,,31,49,215,37,36,36,142,*7A
$GPGSV,4,4,13,49,42,167,32*41
$GLGSV,2,1,07,72,00,024,,78,38,142,37,79,85,349,22,80,28,326,10*6C
$GLGSV,2,2,07,81,82,328,,82,39,226,33,88,30,035,*5B
$GNGLL,4024.99366,N,00340.22588,W,145533.00,A,A*63
$GNRMC,145534.00,A,4024.99372,N,00340.22589,W,0.038,,240224,,,A*70
$GNVTG,,T,,M,0.038,N,0.070,K,A*31
$GNGGA,145534.00,4024.99372,N,00340.22589,W,1,09,1.01,693.1,M,50.2,M,,*56
$GNGSA,A,3,18,31,28,27,23,25,,,,,,,1.82,1.01,1.51*10
$GNGSA,A,3,82,78,80,,,,,,,,,,1.82,1.01,1.51*1F
$GPGSV,4,1,13,04,04,285,,05,10,044,,16,44,310,17,18,67,091,13*74
$GPGSV,4,2,13,23,14,133,26,25,05,121,19,26,78,321,,27,28,265,25*76
$GPGSV,4,3,13,28,29,189,40,29,26,060,,31,49,215,37,36,36,142,*7A
$GPGSV,4,4,13,49,42,167,32*41
$GLGSV,2,1,07,72,00,024,,78,38,142,37,79,85,349,21,80,28,326,10*6F
$GLGSV,2,2,07,81,82,328,,82,39,226,33,88,30,035,*5B
$GNGLL,4024.99372,N,00340.22589,W,145534.00,A,A*60
$GNRMC,145535.00,A,4024.99375,N,00340.22591,W,0.136,,240224,,,A*70
$GNVTG,,T,,M,0.136,N,0.253,K,A*3D
$GNGGA,145535.00,4024.99375,N,00340.22591,W,1,09,1.01,692.8,M,50.2,M,,*51
$GNGSA,A,3,18,31,28,27,23,25,,,,,,,1.82,1.01,1.51*10
$GNGSA,A,3,82,78,80,,,,,,,,,,1.82,1.01,1.51*1F
$GPGSV,4,1,13,04,04,285,,05,10,044,,16,44,310,17,18,67,091,15*72
$GPGSV,4,2,13,23,14,133,26,25,05,121,19,26,78,321,,27,28,265,25*76
$GPGSV,4,3,13,28,29,189,40,29,26,060,,31,49,215,37,36,36,142,*7A
$GPGSV,4,4,13,49,42,167,32*41
$GLGSV,2,1,07,72,00,024,,78,38,142,37,79,85,349,21,80,28,326,11*6E
$GLGSV,2,2,07,81,82,328,,82,39,226,33,88,30,035,*5B
$GNGLL,4024.99375,N,00340.22591,W,145535.00,A,A*6F
$GNRMC,145536.00,A,4024.99374,N,00340.22594,W,0.164,,240224,,,A*70
$GNVTG,,T,,M,0.164,N,0.304,K,A*39
$GNGGA,145536.00,4024.99374,N,00340.22594,W,1,09,1.01,692.5,M,50.2,M,,*5B
$GNGSA,A,3,18,31,28,27,23,25,,,,,,,1.82,1.01,1.51*10
$GNGSA,A,3,82,78,80,,,,,,,,,,1.82,1.01,1.51*1F
$GPGSV,4,1,13,04,04,285,,05,10,044,,16,44,310,16,18,67,091,16*70
$GPGSV,4,2,13,23,14,133,26,25,05,121,20,26,78,321,,27,28,265,25*7C
$GPGSV,4,3,13,28,29,189,40,29,26,060,,31,49,215,37,36,36,142,*7A
$GPGSV,4,4,13,49,42,167,32*41
$GLGSV,2,1,07,72,00,024,,78,38,142,37,79,85,349,22,80,28,326,11*6D
$GLGSV,2,2,07,81,82,328,,82,39,226,33,88,30,035,*5B
$GNGLL,4024.99374,N,00340.22594,W,145536.00,A,A*68
$GNRMC,145537.00,A,4024.99373,N,00340.22600,W,0.131,,240224,,,A*78
$GNVTG,,T,,M,0.131,N,0.242,K,A*3A
$GNGGA,145537.00,4024.99373,N,00340.22600,W,1,09,1.01,692.4,M,50.2,M,,*52
$GNGSA,A,3,18,31,28,27,23,25,,,,,,,1.82,1.01,1.51*10
$GNGSA,A,3,82,78,80,,,,,,,,,,1.82,1.01,1.51*1F
$GPGSV,4,1,13,04,04,285,,05,10,044,,16,44,310,17,18,67,091,15*72
$GPGSV,4,2,13,23,14,133,26,25,05,121,20,26,78,321,,27,28,265,25*7C
$GPGSV,4,3,13,28,29,189,40,29,26,060,,31,49,215,37,36,36,142,*7A
$GPGSV,4,4,13,49,42,167,32*41
$GLGSV,2,1,07,72,00,024,,78,38,142,37,79,85,349,22,80,28,326,10*6C
$GLGSV,2,2,07,81,82,328,,82,39,226,33,88,30,035,*5B
$GNGLL,4024.99373,N,00340.22600,W,145537.00,A,A*60
$GNRMC,145538.00,A,4024.99377,N,00340.22604,W,0.074,,240224,,,A*77
$GNVTG,,T,,M,0.074,N,0.136,K,A*3A
$GNGGA,145538.00,4024.99377,N,00340.22604,W,1,09,1.01,692.2,M,50.2,M,,*5B
$GNGSA,A,3,18,31,28,27,23,25,,,,,,,1.82,1.01,1.51*10
$GNGSA,A,3,82,78,80,,,,,,,,,,1.82,1.01,1.51*1F
$GPGSV,4,1,13,04,04,285,,05,10,044,,16,44,310,18,18,67,091,15*7D
$GPGSV,4,2,13,23,14,133,26,25,05,121,19,26,78,321,,27,28,265,24*77
$GPGSV,4,3,13,28,29,189,40,29,26,060,,31,49,215,37,36,36,142,*7A
$GPGSV,4,4,13,49,42,167,32*41
$GLGSV,2,1,07,72,00,024,,78,38,142,37,79,85,349,22,80,28,326,10*6C
$GLGSV,2,2,07,81,82,328,,82,39,226,33,88,30,035,*5B
$GNGLL,4024.99377,N,00340.22604,W,145538.00,A,A*6F
$GNRMC,145539.00,A,4024.99382,N,00340.22612,W,0.731,,240224,,,A*7D
$GNVTG,,T,,M,0.731,N,1.354,K,A*3B
$GNGGA,145539.00,4024.99382,N,00340.22612,W,1,09,1.01,691.8,M,50.2,M,,*5E
$GNGSA,A,3,18,31,28,27,23,25,,,,,,,1.82,1.01,1.51*10
$GNGSA,A,3,82,78,80,,,,,,,,,,1.82,1.01,1.51*1F
$GPGSV,4,1,13,04,04,285,,05,10,044,,16,44,310,17,18,67,091,17*70
$GPGSV,4,2,13,23,14,133,27,25,05,121,19,26,78,321,,27,28,265,23*71
$GPGSV,4,3,13,28,29,189,40,29,26,060,,31,49,215,36,36,36,142,*7B
$GPGSV,4,4,13,49,42,167,32*41
$GLGSV,2,1,07,72,00,024,,78,38,142,37,79,85,349,20,80,28,326,10*6E
$GLGSV,2,2,07,81,82,328,,82,39,226,32,88,30,035,*5A
$GNGLL,4024.99382,N,00340.22612,W,145539.00,A,A*63
$GNRMC,145540.00,A,4024.99389,N,00340.22618,W,0.582,,240224,,,A*78
$GNVTG,,T,,M,0.582,N,1.078,K,A*3C
$GNGGA,145540.00,4024.99389,N,00340.22618,W,1,09,1.01,691.5,M,50.2,M,,*5C
$GNGSA,A,3,18,31,28,27,23,25,,,,,,,1.82,1.01,1.51*10
$GNGSA,A,3,82,78,80,,,,,,,,,,1.82,1.01,1.51*1F
$GPGSV,4,1,13,04,04,285,,05,10,044,,16,44,310,17,18,67,091,16*71
$GPGSV,4,2,13,23,14,133,26,25,05,121,19,26,78,321,,27,28,265,22*71
$GPGSV,4,3,13,28,29,189,40,29,26,060,,31,49,215,37,36,36,142,*7A
$GPGSV,4,4,13,49,42,167,32*41
$GLGSV,2,1,07,72,00,024,,78,38,142,37,79,85,349,19,80,28,326,10*64
$GLGSV,2,2,07,81,82,328,,82,39,226,33,88,30,035,*5B
$GNGLL,4024.99389,N,00340.22618,W,145540.00,A,A*6C
$GNRMC,145541.00,A,4024.99390,N,00340.22627,W,0.199,,240224,,,D*76
$GNVTG,,T,,M,0.199,N,0.368,K,D*34
$GNGGA,145541.00,4024.99390,N,00340.22627,W,2,08,1.54,691.4,M,50.2,M,,0000*5A
$GNGSA,A,3,18,31,28,27,23,25,,,,,,,2.25,1.54,1.64*18
$GNGSA,A,3,82,78,,,,,,,,,,,2.25,1.54,1.64*1F
$GPGSV,4,1,13,04,04,285,,05,10,044,,16,44,310,15,18,67,091,17*72
$GPGSV,4,2,13,23,14,133,26,25,05,121,18,26,78,321,,27,28,265,21*73
$GPGSV,4,3,13,28,29,189,40,29,26,060,,31,49,215,37,36,36,142,*7A
$GPGSV,4,4,13,49,42,167,32*41
$GLGSV,2,1,07,72,00,024,,78,38,142,37,79,85,349,20,80,28,326,*6F
$GLGSV,2,2,07,81,82,328,,82,39,226,33,88,30,035,*5B
$GNGLL,4024.99390,N,00340.22627,W,145541.00,A,D*6C
$GNRMC,145542.00,A,4024.99392,N,00340.22635,W,0.074,,240224,,,D*76
$GNVTG,,T,,M,0.074,N,0.138,K,D*31
$GNGGA,145542.00,4024.99392,N,00340.22635,W,2,08,1.54,690.9,M,50.2,M,,0000*54
$GNGSA,A,3,18,31,28,27,23,25,,,,,,,2.25,1.54,1.64*18
$GNGSA,A,3,82,78,,,,,,,,,,,2.25,1.54,1.64*1F
$GPGSV,4,1,13,04,04,285,,05,10,044,,16,44,310,17,18,67,091,17*70
$GPGSV,4,2,13,23,14,133,26,25,05,121,19,26,78,321,,27,28,265,21*72
$GPGSV,4,3,13,28,29,189,40,29,26,060,,31,49,215,37,36,36,142,*7A
$GPGSV,4,4,13,49,42,167,32*41
$GLGSV,2,1,07,72,00,024,,78,38,142,37,79,85,349,19,80,28,326,*65
$GLGSV,2,2,07,81,82,328,,82,39,226,33,88,30,035,*5B
$GNGLL,4024.99392,N,00340.22635,W,145542.00,A,D*6E
$GNRMC,145543.00,A,4024.99384,N,00340.22641,W,0.175,,240224,,,D*73
$GNVTG,,T,,M,0.175,N,0.324,K,D*3E
$GNGGA,145543.00,4024.99384,N,00340.22641,W,2,08,1.54,690.6,M,50.2,M,,0000*5E
$GNGSA,A,3,18,31,28,27,23,25,,,,,,,2.25,1.54,1.64*18
$GNGSA,A,3,82,78,,,,,,,,,,,2.25,1.54,1.64*1F
$GPGSV,4,1,13,04,04,285,,05,10,044,,16,44,310,17,18,67,091,16*71
$GPGSV,4,2,13,23,14,133,26,25,05,121,18,26,78,321,,27,28,265,21*73
$GPGSV,4,3,13,28,29,189,40,29,26,060,,31,49,215,37,36,36,142,*7A
$GPGSV,4,4,13,49,42,167,32*41
$GLGSV,2,1,07,72,00,024,,78,38,142,37,79,85,349,18,80,28,326,*64
$GLGSV,2,2,07,81,82,328,,82,39,226,32,88,30,035,*5A
$GNGLL,4024.99384,N,00340.22641,W,145543.00,A,D*6B
$GNRMC,145544.00,A,4024.99377,N,00340.22646,W,0.044,,240224,,,D*7C
$GNVTG,,T,,M,0.044,N,0.082,K,D*32
$GNGGA,145544.00,4024.99377,N,00340.22646,W,2,08,1.54,690.3,M,50.2,M,,0000*57
$GNGSA,A,3,18,31,28,27,23,25,,,,,,,2.25,1.54,1.64*18
$GNGSA,A,3,82,78,,,,,,,,,,,2.25,1.54,1.64*1F
$GPGSV,4,1,13,04,04,285,,05,10,044,,16,44,310,16,18,67,091,16*70
$GPGSV,4,2,13,23,14,133,26,25,05,121,19,26,78,321,19,27,28,265,21*7A
$GPGSV,4,3,13,28,29,189,40,29,26,060,,31,49,215,37,36,36,142,*7A
$GPGSV,4,4,13,49,42,167,32*41
$GLGSV,2,1,07,72,00,024,,78,38,142,37,79,85,349,18,80,28,326,*64
$GLGSV,2,2,07,81,82,328,,82,39,226,33,88,30,035,*5B
$GNGLL,4024.99377,N,00340.22646,W,145544.00,A,D*67
$GNRMC,145545.00,A,4024.99384,N,00340.22653,W,0.463,,240224,,,D*74
$GNVTG,,T,,M,0.463,N,0.857,K,D*33
$GNGGA,145545.00,4024.99384,N,00340.22653,W,2,08,1.54,689.8,M,50.2,M,,0000*5D
$GNGSA,A,3,18,31,28,27,23,25,,,,,,,2.25,1.54,1.64*18
$GNGSA,A,3,82,78,,,,,,,,,,,2.25,1.54,1.64*1F
$GPGSV,4,1,13,04,04,285,,05,10,044,,16,44,310,15,18,67,091,17*72
$GPGSV,4,2,13,23,14,133,26,25,05,121,18,26,78,321,,27,28,265,20*72
$GPGSV,4,3,13,28,29,189,40,29,26,060,19,31,49,215,37,36,36,142,*72
$GPGSV,4,4,13,49,42,167,32*41
$GLGSV,2,1,07,72,00,024,,78,38,142,37,79,85,349,17,80,28,326,*6B
$GLGSV,2,2,07,81,82,328,,82,39,226,32,88,30,035,*5A
$GNGLL,4024.99384,N,00340.22653,W,145545.00,A,D*6E
$GNRMC,145546.00,A,4024.99381,N,00340.22658,W,0.494,,240224,,,D*71
$GNVTG,,T,,M,0.494,N,0.916,K,D*3F
$GNGGA,145546.00,4024.99381,N,00340.22658,W,2,08,1.54,689.5,M,50.2,M,,0000*5D
$GNGSA,A,3,18,31,28,27,23,25,,,,,,,2.25,1.54,1.64*18
$GNGSA,A,3,82,78,,,,,,,,,,,2.25,1.54,1.64*1F
$GPGSV,4,1,13,04,04,285,,05,10,044,,16,44,310,15,18,67,091,16*73
$GPGSV,4,2,13,23,14,133,27,25,05,121,18,26,78,321,,27,28,265,19*79
$GPGSV,4,3,13,28,29,189,40,29,26,060,17,31,49,215,37,36,36,142,*7C
$GPGSV,4,4,13,49,42,167,32*41
$GLGSV,2,1,07,72,00,024,,78,38,142,37,79,85,349,18,80,28,326,*64
$GLGSV,2,2,07,81,82,328,,82,39,226,32,88,30,035,*5A
$GNGLL,4024.99381,N,00340.22658,W,145546.00,A,D*63
$GNRMC,145547.00,A,4024.99390,N,00340.22663,W,0.228,,240224,,,D*79
$GNVTG,,T,,M,0.228,N,0.422,K,D*34
$GNGGA,145547.00,4024.99390,N,00340.22663,W,2,08,1.54,689.1,M,50.2,M,,0000*50
$GNGSA,A,3,18,31,28,27,23,25,,,,,,,2.25,1.54,1.64*18
$GNGSA,A,3,82,78,,,,,,,,,,,2.25,1.54,1.64*1F
$GPGSV,4,1,13,04,04,285,,05,10,044,,16,44,310,16,18,67,091,17*71
$GPGSV,4,2,13,23,14,133,27,25,05,121,18,26,78,321,,27,28,265,20*73
$GPGSV,4,3,13,28,29,189,40,29,26,060,16,31,49,215,37,36,36,142,*7D
$GPGSV,4,4,13,49,42,167,32*41
$GLGSV,2,1,07,72,00,024,,78,38,142,37,79,85,349,18,80,28,326,*64
$GLGSV,2,2,07,81,82,328,,82,39,226,32,88,30,035,*5A
$GNGLL,4024.99390,N,00340.22663,W,145547.00,A,D*6A
$GNRMC,145548.00,A,4024.99393,N,00340.22667,W,0.041,,240224,,,D*7C
$GNVTG,,T,,M,0.041,N,0.075,K,D*3F
$GNGGA,145548.00,4024.99393,N,00340.22667,W,2,08,1.54,688.9,M,50.2,M,,0000*51
$GNGSA,A,3,18,31,28,27,23,25,,,,,,,2.25,1.54,1.64*18
$GNGSA,A,3,82,78,,,,,,,,,,,2.25,1.54,1.64*1F
$GPGSV,4,1,13,04,04,285,,05,10,044,,16,44,310,15,18,67,091,17*72
$GPGSV,4,2,13,23,14,133,26,25,05,121,18,26,78,321,,27,28,265,20*72
$GPGSV,4,3,13,28,29,189,40,29,26,060,15,31,49,215,37,36,36,142,*7E
$GPGSV,4,4,13,49,42,167,32*41
$GLGSV,2,1,07,72,00,024,,78,38,142,37,79,85,349,18,80,28,326,*64
$GLGSV,2,2,07,81,82,328,,82,39,226,33,88,30,035,*5B
$GNGLL,4024.99393,N,00340.22667,W,145548.00,A,D*62
$GNRMC,145549.00,A,4024.99387,N,00340.22676,W,0.052,,240224,,,D*7A
$GNVTG,,T,,M,0.052,N,0.096,K,D*30
$GNGGA,145549.00,4024.99387,N,00340.22676,W,2,08,1.54,688.3,M,50.2,M,,0000*5F
$GNGSA,A,3,18,31,28,27,23,25,,,,,,,2.25,1.54,1.64*18
$GNGSA,A,3,82,78,,,,,,,,,,,2.25,1.54,1.64*1F
$GPGSV,4,1,13,04,04,285,,05,10,044,,16,44,310,15,18,67,091,18*7D
$GPGSV,4,2,13,23,14,133,27,25,05,121,19,26,78,321,,27,28,265,20*72
$GPGSV,4,3,13,28,29,189,40,29,26,060,13,31,49,215,37,36,36,142,*78
$GPGSV,4,4,13,49,42,167,32*41
$GLGSV,2,1,07,72,00,024,,78,38,142,37,79,85,349,17,80,28,326,*6B
$GLGSV,2,2,07,81,82,328,17,82,39,226,32,88,30,035,*5C
$GNGLL,4024.99387,N,00340.22676,W,145549.00,A,D*66
$GNRMC,145550.00,A,4024.99388,N,00340.22690,W,0.040,,240224,,,D*76
$GNVTG,,T,,M,0.040,N,0.075,K,D*3E
$GNGGA,145550.00,4024.99388,N,00340.22690,W,2,08,1.54,687.5,M,50.2,M,,0000*59
$GNGSA,A,3,18,31,28,27,23,25,,,,,,,2.25,1.54,1.64*18
$GNGSA,A,3,82,78,,,,,,,,,,,2.25,1.54,1.64*1F
$GPGSV,4,1,13,04,04,285,,05,10,044,,16,44,310,15,18,67,091,19*7C
$GPGSV,4,2,13,23,14,133,27,25,05,121,18,26,78,321,,27,28,265,20*73
$GPGSV,4,3,13,28,29,189,40,29,26,060,13,31,49,215,37,36,36,142,*78
$GPGSV,4,4,13,49,42,167,32*41
$GLGSV,2,1,07,72,00,024,,78,38,142,37,79,85,349,15,80,28,326,*69
$GLGSV,2,2,07,81,82,328,,82,39,226,32,88,30,035,*5A
$GNGLL,4024.99388,N,00340.22690,W,145550.00,A,D*69
$GNRMC,145551.00,A,4024.99376,N,00340.22701,W,0.112,,240224,,,D*79
$GNVTG,,T,,M,0.112,N,0.207,K,D*3F
$GNGGA,145551.00,4024.99376,N,00340.22701,W,2,08,1.54,687.2,M,50.2,M,,0000*57
$GNGSA,A,3,18,31,28,27,23,25,,,,,,,2.25,1.54,1.64*18
$GNGSA,A,3,82,78,,,,,,,,,,,2.25,1.54,1.64*1F
$GPGSV,4,1,13,04,04,285,,05,10,044,,16,45,310,16,18,67,091,18*7F
$GPGSV,4,2,13,23,14,133,26,25,05,121,18,26,78,321,,27,28,265,20*72
$GPGSV,4,3,13,28,29,189,40,29,26,060,11,31,49,215,37,36,36,142,*7A
$GPGSV,4,4,13,49,42,167,32*41
$GLGSV,2,1,07,72,00,024,,78,38,142,37,79,85,349,13,80,28,326,*6F
$GLGSV,2,2,07,81,82,328,,82,39,226,33,88,30,035,*5B
$GNGLL,4024.99376,N,00340.22701,W,145551.00,A,D*60
$GNRMC,145552.00,A,4024.99376,N,00340.22707,W,0.187,,240224,,,D*70
$GNVTG,,T,,M,0.187,N,0.347,K,D*36
$GNGGA,145552.00,4024.99376,N,00340.22707,W,2,08,1.54,687.1,M,50.2,M,,0000*51
$GNGSA,A,3,18,31,28,27,23,25,,,,,,,2.25,1.54,1.64*18
$GNGSA,A,3,82,78,,,,,,,,,,,2.25,1.54,1.64*1F
$GPGSV,4,1,13,04,04,285,,05,10,044,,16,45,310,16,18,67,091,18*7F
$GPGSV,4,2,13,23,14,133,26,25,05,121,17,26,78,321,,27,28,265,21*7C
$GPGSV,4,3,13,28,29,189,40,29,26,060,10,31,49,215,37,36,36,142,*7B
$GPGSV,4,4,13,49,42,167,32*41
$GLGSV,2,1,07,72,00,024,,78,38,142,37,79,85,349,13,80,28,326,*6F
$GLGSV,2,2,07,81,82,328,,82,39,226,33,88,30,035,*5B
$GNGLL,4024.99376,N,00340.22707,W,145552.00,A,D*65
$GNRMC,145553.00,A,4024.99396,N,00340.22716,W,0.144,,240224,,,D*70
$GNVTG,,T,,M,0.144,N,0.267,K,D*3A
$GNGGA,145553.00,4024.99396,N,00340.22716,W,2,08,1.54,686.7,M,50.2,M,,0000*59
$GNGSA,A,3,18,31,28,27,23,25,,,,,,,2.25,1.54,1.64*18
$GNGSA,A,3,82,78,,,,,,,,,,,2.25,1.54,1.64*1F
$GPGSV,4,1,13,04,04,285,,05,10,044,,16,45,310,15,18,67,089,17*7A
$GPGSV,4,2,13,23,14,133,26,25,05,121,17,26,78,321,19,27,28,265,20*75
$GPGSV,4,3,13,28,29,189,40,29,26,060,10,31,49,215,37,36,36,142,*7B
$GPGSV,4,4,13,49,42,167,32*41
$GLGSV,2,1,07,72,00,024,,78,38,142,37,79,85,349,13,80,28,326,*6F
$GLGSV,2,2,07,81,82,328,,82,39,226,33,88,30,035,*5B
$GNGLL,4024.99396,N,00340.22716,W,145553.00,A,D*6A
$GNRMC,145554.00,A,4024.99385,N,00340.22727,W,0.073,,240224,,,D*72
$GNVTG,,T,,M,0.073,N,0.135,K,D*3B
$GNGGA,145554.00,4024.99385,N,00340.22727,W,2,08,1.54,686.4,M,50.2,M,,0000*5D
$GNGSA,A,3,18,31,28,27,23,25,,,,,,,2.25,1.54,1.64*18
$GNGSA,A,3,82,78,,,,,,,,,,,2.25,1.54,1.64*1F
$GPGSV,4,1,13,04,04,285,,05,10,044,,16,45,310,15,18,67,089,18*75
$GPGSV,4,2,13,23,14,133,26,25,05,121,17,26,78,321,,27,28,265,20*7D
$GPGSV,4,3,13,28,29,189,40,29,26,060,12,31,49,215,37,36,36,142,*79
$GPGSV,4,4,13,49,42,167,32*41
$GLGSV,2,1,07,72,00,024,,78,38,142,37,79,85,349,12,80,28,326,*6E
$GLGSV,2,2,07,81,82,328,,82,39,226,33,88,30,035,*5B
$GNGLL,4024.99385,N,00340.22727,W,145554.00,A,D*6D
$GNRMC,145555.00,A,4024.99392,N,00340.22738,W,0.115,,240224,,,D*7A
$GNVTG,,T,,M,0.115,N,0.213,K,D*3D
$GNGGA,145555.00,4024.99392,N,00340.22738,W,2,08,1.54,685.8,M,50.2,M,,0000*5B
$GNGSA,A,3,18,31,28,27,23,25,,,,,,,2.25,1.54,1.64*18
$GNGSA,A,3,82,78,,,,,,,,,,,2.25,1.54,1.64*1F
$GPGSV,4,1,13,04,04,285,,05,10,044,,16,45,310,14,18,67,089,19*75
$GPGSV,4,2,13,23,14,133,26,25,05,121,17,26,78,321,,27,28,265,20*7D
$GPGSV,4,3,13,28,29,189,40,29,26,060,10,31,49,215,37,36,36,142,*7B
$GPGSV,4,4,13,49,42,167,32*41
$GLGSV,2,1,07,72,00,024,,78,38,142,37,79,85,349,11,80,28,326,18*64
$GLGSV,2,2,07,81,82,328,,82,39,226,33,88,30,035,*5B
$GNGLL,4024.99392,N,00340.22738,W,145555.00,A,D*64
$GNRMC,145556.00,A,4024.99394,N,00340.22748,W,0.134,,240224,,,D*7B
$GNVTG,,T,,M,0.134,N,0.249,K,D*31
$GNGGA,145556.00,4024.99394,N,00340.22748,W,2,08,1.54,685.2,M,50.2,M,,0000*53
$GNGSA,A,3,18,31,28,27,23,25,,,,,,,2.25,1.54,1.64*18
$GNGSA,A,3,82,78,,,,,,,,,,,2.25,1.54,1.64*1F
$GPGSV,4,1,13,04,04,285,,05,10,044,,16,45,310,16,18,67,089,20*7D
$GPGSV,4,2,13,23,14,133,26,25,05,121,18,26,78,321,,27,28,265,19*78
$GPGSV,4,3,13,28,29,189,40,29,26,060,10,31,49,215,37,36,36,142,*7B
$GPGSV,4,4,13,49,42,167,32*41
$GLGSV,2,1,07,72,00,024,,78,38,142,37,79,85,349,,80,28,326,18*64
$GLGSV,2,2,07,81,82,328,,82,39,226,33,88,30,035,*5B
$GNGLL,4024.99394,N,00340.22748,W,145556.00,A,D*66
$GNRMC,145557.00,A,4024.99380,N,00340.22763,W,0.086,,240224,,,D*7E
$GNVTG,,T,,M,0.086,N,0.159,K,D*3B
$GNGGA,145557.00,4024.99380,N,00340.22763,W,2,08,1.54,684.9,M,50.2,M,,0000*54
$GNGSA,A,3,18,31,28,27,23,25,,,,,,,2.25,1.54,1.64*18
$GNGSA,A,3,82,78,,,,,,,,,,,2.25,1.54,1.64*1F
$GPGSV,4,1,13,04,04,285,,05,10,044,,16,45,310,17,18,67,089,21*7D
$GPGSV,4,2,13,23,14,133,26,25,05,121,19,26,78,321,,27,28,265,19*79
$GPGSV,4,3,13,28,29,189,40,29,26,060,10,31,49,215,37,36,36,142,*7B
$GPGSV,4,4,13,49,42,167,31*42
$GLGSV,2,1,07,72,00,024,,78,38,142,37,79,85,349,,80,28,326,17*6B
$GLGSV,2,2,07,81,82,328,,82,39,226,33,88,30,035,*5B
$GNGLL,4024.99380,N,00340.22763,W,145557.00,A,D*6B
$GNRMC,145558.00,A,4024.99384,N,00340.22774,W,0.064,,240224,,,D*7F
$GNVTG,,T,,M,0.064,N,0.118,K,D*32
$GNGGA,145558.00,4024.99384,N,00340.22774,W,2,08,1.54,684.4,M,50.2,M,,0000*54
$GNGSA,A,3,18,31,28,27,23,25,,,,,,,2.25,1.54,1.64*18
$GNGSA,A,3,82,78,,,,,,,,,,,2.25,1.54,1.64*1F
$GPGSV,4,1,13,04,04,285,,05,10,044,,16,45,310,18,18,67,089,21*72
$GPGSV,4,2,13,23,14,133,26,25,05,121,19,26,78,321,,27,28,265,20*73
$GPGSV,4,3,13,28,29,189,40,29,26,060,11,31,49,215,37,36,36,142,*7A
$GPGSV,4,4,13,49,42,167,32*41
$GLGSV,2,1,07,72,00,024,,78,38,142,37,79,85,349,,80,28,326,17*6B
$GLGSV,2,2,07,81,82,328,,82,39,226,33,88,30,035,*5B
$GNGLL,4024.99384,N,00340.22774,W,145558.00,A,D*66
$GNRMC,145559.00,A,4024.99379,N,00340.22786,W,0.180,,240224,,,D*7A
$GNVTG,,T,,M,0.180,N,0.333,K,D*32
$GNGGA,145559.00,4024.99379,N,00340.22786,W,2,09,1.01,684.1,M,50.2,M,,0000*5E
$GNGSA,A,3,18,31,28,27,23,25,,,,,,,1.82,1.01,1.51*10
$GNGSA,A,3,82,78,80,,,,,,,,,,1.82,1.01,1.51*1F
$GPGSV,4,1,13,04,04,285,,05,10,044,,16,45,310,19,18,67,089,21*73
$GPGSV,4,2,13,23,14,133,26,25,05,121,17,26,78,321,,27,28,265,21*7C
$GPGSV,4,3,13,28,29,189,40,29,26,060,12,31,49,215,37,36,36,142,*79
$GPGSV,4,4,13,49,42,167,31*42
$GLGSV,2,1,07,72,00,024,,78,38,142,37,79,85,349,,80,28,326,16*6A
$GLGSV,2,2,07,81,82,328,,82,39,226,33,88,30,035,*5B
$GNGLL,4024.99379,N,00340.22786,W,145559.00,A,D*68
$GNRMC,145600.00,A,4024.99363,N,00340.22795,W,0.115,,240224,,,D*70
$GNVTG,,T,,M,0.115,N,0.213,K,D*3D
$GNGGA,145600.00,4024.99363,N,00340.22795,W,2,09,1.01,683.8,M,50.2,M,,0000*56
$GNGSA,A,3,18,31,28,27,23,25,,,,,,,1.82,1.01,1.51*10
$GNGSA,A,3,82,78,80,,,,,,,,,,1.82,1.01,1.51*1F
$GPGSV,4,1,13,04,04,285,,05,10,044,,16,45,310,17,18,67,089,21*7D
$GPGSV,4,2,13,23,14,133,25,25,05,121,16,26,78,321,,27,28,265,21*7E
$GPGSV,4,3,13,28,29,189,40,29,26,060,12,31,49,215,37,36,36,142,*79
$GPGSV,4,4,13,49,42,167,32*41
$GLGSV,2,1,07,72,00,024,,78,38,142,37,79,85,349,,80,28,326,16*6A
$GLGSV,2,2,07,81,82,328,,82,39,226,33,88,30,035,*5B
$GNGLL,4024.99363,N,00340.22795,W,145600.00,A,D*6E
$GNRMC,145601.00,A,4024.99351,N,00340.22803,W,0.179,,240224,,,D*7A
$GNVTG,,T,,M,0.179,N,0.332,K,D*35
$GNGGA,145601.00,4024.99351,N,00340.22803,W,2,08,1.06,683.5,M,50.2,M,,0000*5D
$GNGSA,A,3,18,31,28,27,23,,,,,,,,2.14,1.06,1.86*16
$GNGSA,A,3,82,78,80,,,,,,,,,,2.14,1.06,1.86*1E
$GPGSV,4,1,13,04,04,285,,05,10,044,,16,45,310,15,18,67,089,22*7C
